ZipCode,Cluster,Fog,Precipitation,Rain,Snow,Storm,City,State,LocationLat,LocationLng
1022.0,3,2.7804889649923896,0.05726788432267885,12.56654299847793,3.081525875190259,0.015458523592085235,Chicopee,MA,42.194,-72.5348
1085.0,3,3.559455859969559,0.06701864535768647,11.556316590563167,2.447250761035008,0.014602359208523591,Westfield,MA,42.1601,-72.7124
1201.0,1,4.239345509893456,0.0761986301369863,10.301940639269407,5.2271689497716896,0.006516362252663624,Pittsfield,MA,42.4269,-73.289
1247.0,3,2.0870909436834095,0.08761415525114155,11.103072678843228,4.733637747336378,0.010511796042617962,North Adams,MA,42.6973,-73.1696
1364.0,3,4.849315068493151,0.06901636225266362,10.898734779299849,2.844891552511416,0.0006183409436834095,Orange,MA,42.57,-72.2869
1420.0,3,2.2223649162861494,0.0686834094368341,11.075722983257231,3.0201674277016743,0.002853881278538813,Fitchburg,MA,42.5519,-71.7558
1602.0,3,6.7824866818873675,0.07857686453576866,10.707810121765602,3.1061168188736685,0.02958523592085236,Worcester,MA,42.2706,-71.8731
1742.0,3,3.6571537290715375,0.058124048706240494,11.671137747336378,2.787909056316591,0.006611491628614916,Concord,MA,42.4681,-71.2946
1845.0,3,2.604166666666667,0.06230974124809741,11.316923515981735,2.5753900304414006,0.02011986301369863,North Andover,MA,42.7126,-71.1255
1915.0,3,3.4895833333333335,0.047659817351598174,11.105498477929986,2.1735635464231358,0.002853881278538813,Beverly,MA,42.5841,-70.9153
2021.0,0,3.4935312024353125,0.5312975646879756,4.800038051750381,0.9470129375951294,0.04661339421613394,Canton,MA,42.2121,-71.1142
2050.0,0,3.688403729071538,0.04661339421613394,5.9315544140030445,1.5166000761035008,0.002853881278538813,Marshfield,MA,42.0983,-70.6722
2062.0,3,5.27863394216134,0.07267884322678843,9.68455098934551,2.364393074581431,0.0009512937595129378,Norwood,MA,42.1912,-71.1733
2128.0,3,1.9950057077625571,0.07505707762557079,12.929461567732117,2.4653729071537294,0.0982210806697108,East Boston,MA,42.3606,-71.0097
2360.0,3,3.1815068493150687,0.05293949771689498,12.129946727549466,1.9590468036529682,0.018692922374429224,Plymouth,MA,41.9085,-70.7279
2542.0,3,5.442684550989346,0.0,7.443445585996956,1.783866057838661,0.1766552511415525,Sandwich,MA,41.6584,-70.5214
2554.0,2,11.09037290715373,0.028919330289193305,9.935502283105023,1.307410578386606,0.3080289193302892,Nantucket,MA,41.253,-70.061
2568.0,3,7.127378234398783,0.023592085235920858,11.820538432267886,1.3418474124809743,0.09375000000000001,Vineyard Haven,MA,41.393,-70.6159
2601.0,3,5.482163242009133,0.03638698630136986,12.475123668188738,1.7031012176560123,0.018027016742770168,Hyannis,MA,41.672,-70.2697
2633.0,3,7.115201674277016,0.03110730593607306,12.7976598173516,1.8734303652968038,0.0,Chatham,MA,41.6875,-69.9933
2657.0,3,3.243673896499239,0.09612823439878235,12.575485159817353,1.70880898021309,0.24947678843226787,Provincetown,MA,42.0744,-70.2182
2718.0,3,4.156725646879757,0.05683980213089803,12.325342465753426,1.7497146118721463,0.0,East Taunton,MA,41.8756,-71.0211
2745.0,3,3.5391933028919333,0.039764079147640796,11.264079147640793,1.7873382800608828,0.0282058599695586,New Bedford,MA,41.6791,-70.9591
2807.0,3,4.809931506849316,0.0418093607305936,11.374096270928463,1.0118436073059363,0.0290144596651446,Block Island,RI,41.1695,-71.5787
2842.0,3,5.996385083713851,0.03862252663622527,11.114821156773212,1.517123287671233,0.005469939117199391,Middletown,RI,41.5324,-71.2815
2852.0,3,2.8711472602739727,0.0,9.743721461187215,1.3675323439878235,0.06992009132420092,North Kingstown,RI,41.5971,-71.4121
2886.0,3,2.968654870624049,0.056792237442922375,13.670757229832574,2.201293759512938,0.024638508371385082,Warwick,RI,41.7225,-71.4325
2891.0,3,5.428082191780822,0.18721461187214616,10.595747716894978,1.407867199391172,0.0009512937595129377,Westerly,RI,41.3509,-71.8054
2917.0,3,2.725218797564688,0.07025304414003045,11.747716894977168,2.315353881278539,0.002853881278538813,Smithfield,RI,41.9208,-71.4914
3063.0,3,1.550561263318113,0.09584284627092847,11.620005707762559,3.698011796042618,0.006040715372907154,Nashua,NH,42.7798,-71.5141
3103.0,3,2.9241818873668195,0.04490106544901066,11.379090563165907,3.3174467275494677,0.0004756468797564688,Manchester,NH,42.9296,-71.4356
3249.0,3,2.1044520547945207,0.06573439878234398,10.84888698630137,5.197488584474886,0.0010464231354642313,Gilford,NH,43.5727,-71.4189
3264.0,1,6.2404870624048705,0.12842465753424656,10.710616438356166,7.1689497716894985,0.0,Plymouth,NH,43.7771,-71.756
3301.0,3,3.960426179604262,0.06430745814307458,9.498049847793,3.1289478691019794,0.002853881278538813,Concord,NH,43.2049,-71.5026
3431.0,3,5.132134703196347,0.04642313546423135,10.709617579908677,4.47127092846271,0.0,Keene,NH,42.8984,-72.2708
3452.0,3,3.0725361491628616,0.054461567732115676,10.374714611872147,3.954861111111111,0.0,Jaffrey,NH,42.8067,-72.0013
3588.0,1,7.239773592085236,0.030821917808219183,10.18488394216134,9.312214611872147,0.0,Milan,NH,44.5754,-71.1759
3598.0,1,3.792142313546423,0.044520547945205484,9.868864155251142,7.881326103500762,0.0,Whitefield,NH,44.3659,-71.5522
3784.0,3,5.94254185692542,0.05108447488584475,9.633181126331811,4.353358066971081,0.0,West Lebanon,NH,43.6271,-72.3054
3801.0,3,4.022926179604262,0.02715943683409437,12.48592085235921,3.3727644596651447,0.002473363774733638,Portsmouth,NH,43.0779,-70.8233
3867.0,3,4.156107305936073,0.030251141552511417,9.906345129375952,3.2995624048706245,0.0,Rochester,NH,43.2794,-70.9243
4011.0,1,5.147307838660579,0.059313165905631654,7.961044520547946,3.9753139269406397,0.0,Brunswick,ME,43.8922,-69.9386
4037.0,1,3.7063831811263324,0.057505707762557076,8.355593607305938,4.238108828006088,0.0,Fryeburg,ME,43.9911,-70.9479
4073.0,3,2.6461187214611877,0.15520357686453579,11.936691400304415,4.337709284627094,0.0,Sanford,ME,43.3939,-70.708
4102.0,3,4.134417808219179,0.04171423135464232,10.16062595129376,3.6477359208523596,0.0029965753424657537,Portland,ME,43.6424,-70.3044
4210.0,3,3.566019786910198,0.0748668188736682,11.225171232876713,4.106640030441401,0.0,Auburn,ME,44.0485,-70.2835
4330.0,3,5.808885083713851,0.020976027397260275,9.353881278538813,3.916714231354643,0.0,Augusta,ME,44.3207,-69.7973
4401.0,3,4.668854642313547,0.06568683409436835,11.719796423135465,5.416761796042619,0.004042998477929985,Bangor,ME,44.8074,-68.8281
4441.0,0,0.0,0.6322773972602741,0.0,0.0,0.00856164383561644,Greenville,ME,45.4646,-69.5538
4462.0,1,3.6936834094368343,0.06906392694063927,8.69549086757991,5.2425799086758,0.0005232115677321156,Millinocket,ME,45.6478,-68.6925
4578.0,3,4.071489726027398,0.05412861491628615,8.103691019786911,3.6277111872146124,0.0,Wiscasset,ME,43.964,-69.7108
4605.0,3,5.084760273972603,0.050466133942161345,12.197726407914764,4.029823059360731,0.05460426179604262,Trenton,ME,44.4498,-68.3616
4730.0,1,2.803510273972603,0.030441400304414005,9.665620243531203,6.363822298325723,0.0,Houlton,ME,46.1185,-67.7928
4736.0,1,2.7737823439878233,0.061406012176560124,9.942494292237443,8.03553082191781,0.0,Caribou,ME,46.8715,-68.0179
4745.0,1,5.305650684931507,0.02459094368340944,9.340182648401827,11.997574200913242,0.0075152207001522075,Frenchville,ME,47.2855,-68.3127
4769.0,1,2.205812404870624,0.0663527397260274,10.596936834094368,12.339516742770167,0.0,Presque Isle,ME,46.689,-68.0448
4854.0,3,5.677416286149163,0.03886035007610351,12.083190639269407,3.7187024353120246,0.005850456621004566,Owls Head,ME,44.0601,-69.0993
4901.0,1,4.5396689497716896,0.039954337899543384,10.51531582952816,5.347935692541857,0.0004756468797564688,Waterville,ME,44.5333,-69.6755
5150.0,3,6.138508371385084,0.0656392694063927,10.843607305936073,4.246004566210046,0.0,North Springfield,VT,43.3421,-72.5213
5201.0,3,2.5402872907153733,0.05450913242009133,10.965277777777779,4.656487823439879,0.002853881278538813,Bennington,VT,42.8935,-73.2486
5403.0,1,1.210426179604262,0.08219178082191782,10.467656012176562,7.8708618721461185,0.003710045662100457,South Burlington,VT,44.4682,-73.1498
5488.0,1,1.1095890410958904,0.0,8.721936834094368,6.888984018264841,0.0,Swanton,VT,44.9412,-73.0997
5641.0,1,5.431031202435312,0.0655441400304414,10.23330479452055,9.179318873668189,0.0,Barre,VT,44.2035,-72.5623
5661.0,1,5.3629661339421615,0.09864916286149164,9.960901826484019,11.150589802130899,0.0,Morrisville,VT,44.5359,-72.6162
5753.0,3,1.0742960426179604,0.5068968797564688,12.414764079147641,5.562404870624049,0.0,Middlebury,VT,43.9855,-73.0955
5759.0,1,1.4746004566210047,0.04827815829528159,12.183171613394217,7.931411719939117,0.021879756468797567,North Clarendon,VT,43.5349,-72.9514
5819.0,0,0.0,0.5821917808219178,0.0,0.0,0.0,Saint Johnsbury,VT,44.4201,-72.0193
5851.0,1,3.0198820395738206,0.2397260273972603,5.771118721461188,6.9028253424657535,0.0,Lyndonville,VT,44.5691,-72.018
5855.0,1,2.4442066210045663,0.0,11.384703196347033,12.454385464231354,0.0,Newport,VT,44.8888,-72.2292
6096.0,3,2.915953196347032,0.08804223744292239,13.586187214611874,2.563974505327245,0.002378234398782344,Windsor Locks,CT,41.9389,-72.6832
6114.0,3,2.614012557077626,0.09574771689497717,9.848363774733638,1.9321727549467276,0.0018550228310502284,Hartford,CT,41.7367,-72.6494
6256.0,3,3.5592656012176564,0.07905251141552512,10.613108828006089,1.9964802130898025,0.0,North Windham,CT,41.7425,-72.1825
6340.0,3,4.4581430745814306,0.046708523592085244,11.241343226788434,1.3975932267884323,0.04680365296803653,Groton,CT,41.3279,-72.0489
6412.0,3,4.6711377473363775,0.0009512937595129377,10.0330098934551,1.9557172754946728,0.006801750380517504,Chester,CT,41.3839,-72.5059
6478.0,3,4.631754185692542,0.08261986301369863,10.841371765601219,2.7111396499238967,0.018074581430745813,Oxford,CT,41.4741,-73.1354
6492.0,3,2.834332191780822,0.06930175038051752,10.97674086757991,2.0501807458143078,0.0,Wallingford,CT,41.5097,-72.8278
6512.0,3,3.9686548706240488,0.07867199391171995,7.365011415525114,1.3961187214611872,0.011367960426179605,East Haven,CT,41.2638,-72.8868
6615.0,3,2.6664288432267886,0.13446537290715374,11.543378995433791,1.383514079147641,0.011367960426179605,Stratford,CT,41.1642,-73.1266
6810.0,3,2.594415905631659,0.09869672754946729,11.352216514459666,2.100218797564688,0.002853881278538813,Danbury,CT,41.3715,-73.4822
7004.0,3,2.713375190258752,0.11234779299847794,10.932553272450534,1.4146689497716896,0.0006183409436834095,Fairfield,NJ,40.8764,-74.2828
7036.0,3,0.8590182648401827,0.0808599695585997,11.465943683409437,1.0017123287671235,0.0019025875190258753,Linden,NJ,40.6162,-74.2451
7114.0,3,1.04632800608828,0.1111111111111111,15.045995053272453,1.6959189497716896,0.0335806697108067,Newark,NJ,40.6827,-74.1693
7461.0,3,3.756278538812786,0.06782724505327245,13.228405631659058,1.9503424657534247,0.0,Wantage,NJ,41.1992,-74.6259
7608.0,3,3.245386225266363,0.20229261796042622,14.599172374429225,1.627045281582953,0.0006183409436834095,Teterboro,NJ,40.859,-74.0562
7727.0,3,2.4191400304414,0.12937595129375953,12.445300608828006,1.175513698630137,0.001617199391171994,Farmingdale,NJ,40.1822,-74.1207
7860.0,0,2.296613394216134,0.5752949010654491,6.290810502283106,0.8543093607305937,0.0,Newton,NJ,41.0093,-74.7363
7921.0,3,4.326721841704718,0.10131278538812787,10.264316971080671,1.2790620243531203,0.0,Bedminster,NJ,40.624,-74.669
7960.0,3,4.665144596651446,0.005707762557077625,10.64564307458143,1.7775399543378998,0.03638698630136986,Morristown,NJ,40.7989,-74.4163
8048.0,3,2.9506754185692547,0.10559360730593607,9.543902207001523,1.1986777016742771,0.0,Lumberton,NJ,39.9408,-74.8407
8234.0,3,3.173230593607306,0.1045947488584475,8.572155631659058,1.0373382800608828,0.06307077625570777,Egg Harbor Township,NJ,39.452,-74.567
8242.0,3,1.9149067732115679,0.0952720700152207,9.836092085235922,0.6912100456621004,0.03010844748858448,Rio Grande,NJ,39.0108,-74.9079
8332.0,3,2.5671613394216135,0.10226407914764081,8.867770167427702,1.00218797564688,0.0004756468797564688,Millville,NJ,39.3662,-75.0778
8511.0,3,1.995053272450533,0.07372526636225267,11.01136796042618,1.4055365296803655,0.0026160578386605782,Cookstown,NJ,40.0156,-74.5917
8628.0,3,2.809313165905632,0.07600837138508372,10.579385464231356,1.3530726788432268,0.0006659056316590564,Trenton,NJ,40.2768,-74.8159
8721.0,3,2.1406963470319638,0.12970890410958905,10.311643835616438,1.100218797564688,0.013888888888888888,Bayville,NJ,39.9275,-74.2924
8733.0,3,2.7066210045662102,0.03362823439878235,8.259608066971081,0.7543283866057839,0.015839041095890412,Lakehurst,NJ,40.0366,-74.3525
10004.0,3,1.3572108066971083,3.214041095890411,7.797089041095891,0.735302511415525,0.0,New York,NY,40.7012,-74.009
10024.0,3,2.6039288432267886,0.07519977168949772,10.201151065449011,1.216324200913242,0.005707762557077626,New York,NY,40.779,-73.9692
10577.0,3,5.615344368340944,0.1030726788432268,13.995100837138509,1.9218036529680367,0.03472222222222223,Purchase,NY,41.0624,-73.7046
11371.0,3,1.7057648401826486,0.10021879756468799,12.86967275494673,1.434027777777778,0.016029299847793,Flushing,NY,40.7794,-73.8803
11430.0,3,2.5861396499238967,0.08066971080669712,13.14098173515982,1.5867104261796043,0.0771023592085236,Jamaica,NY,40.6392,-73.7639
11735.0,3,2.5268740487062407,0.06364155251141553,8.361063546423136,1.181031202435312,0.010511796042617962,Farmingdale,NY,40.7344,-73.4164
11779.0,3,3.4082001522070016,0.08285768645357687,12.566352739726028,1.5981259512937596,0.013698630136986302,Ronkonkoma,NY,40.7939,-73.1017
11942.0,3,4.62609398782344,0.04856354642313546,11.303890791476409,1.1148211567732116,0.016552511415525113,East Quogue,NY,40.8505,-72.6193
11954.0,0,0.0,1.0599790715372908,0.0,0.0,0.0,Montauk,NY,41.073,-71.9235
11967.0,3,3.554604261796043,0.0678748097412481,12.046803652968038,1.2706430745814308,0.19444444444444448,Shirley,NY,40.8217,-72.8689
11975.0,0,1.1315163622526638,0.5117484779299848,5.274353120243531,0.8195395738203959,0.001189117199391172,Wainscott,NY,40.9596,-72.2519
12110.0,3,4.1133466514459665,0.07776826484018265,13.635844748858448,5.928367579908676,0.005232115677321157,Latham,NY,42.7472,-73.7991
12302.0,3,0.8234398782343989,0.0,8.323011796042618,3.5961282343987824,0.1366533485540335,Schenectady,NY,42.8525,-73.9289
12549.0,3,2.5727264079147645,0.09165715372907154,11.711044520547947,1.9983352359208526,0.00014269406392694066,Montgomery,NY,41.5092,-74.265
12553.0,3,2.086710426179604,0.0,10.354214231354643,2.422089041095891,0.07681697108066972,New Windsor,NY,41.5045,-74.0999
12603.0,3,3.0650684931506853,0.10221651445966516,7.37238394216134,2.307505707762557,0.00019025875190258754,Poughkeepsie,NY,41.6257,-73.8816
12720.0,1,3.17646499238965,0.0625951293759513,9.215848554033485,6.007229832572299,0.0,Bethel,NY,41.7016,-74.795
12804.0,3,4.935549847792999,0.07187024353120244,10.522450532724505,3.0870909436834095,0.0,Queensbury,NY,43.3384,-73.6102
12903.0,3,1.0721556316590564,0.04789764079147642,9.964088660578387,4.4556221461187215,0.0,Plattsburgh,NY,44.6509,-73.4681
12983.0,1,5.505755327245054,0.08333333333333334,8.054461567732115,13.00580289193303,0.0,Saranac Lake,NY,44.3853,-74.2062
13045.0,1,2.344035388127854,0.0,11.886415525114156,11.704718417047184,0.0,Cortland,NY,42.5926,-76.2149
13069.0,1,2.946347031963471,0.09056316590563167,12.56930175038052,8.486539193302892,0.004899162861491629,Fulton,NY,43.3504,-76.3832
13212.0,1,1.5559836377473366,0.09189497716894979,15.434931506849315,13.875856164383563,0.02107115677321157,Syracuse,NY,43.1111,-76.1038
13441.0,1,1.4239916286149163,0.09722222222222224,12.658723363774735,7.9215182648401825,0.009037290715372907,Rome,NY,43.2338,-75.407
13602.0,1,1.3965468036529682,0.04314117199391172,12.179176179604262,7.636415525114156,0.011700913242009132,Fort Drum,NY,44.0556,-75.7195
13634.0,3,3.8416571537290714,0.06730403348554033,12.080574581430747,5.437737823439879,0.016267123287671235,Hounsfield,NY,43.9888,-76.0262
13662.0,1,2.43673896499239,0.06088280060882801,10.59660388127854,6.777349695585997,0.006373668188736682,Massena,NY,44.9358,-74.8455
13669.0,0,0.6145357686453577,0.2682648401826484,5.075152207001522,3.5644977168949774,0.006659056316590564,Ogdensburg,NY,44.6799,-75.4642
13790.0,1,4.026160578386606,0.10297754946727551,10.449010654490108,8.294996194824963,0.0009512937595129377,Johnson City,NY,42.2068,-75.9799
14048.0,1,1.496908295281583,0.10759132420091326,11.826246194824964,7.75470890410959,0.018883181126331815,Dunkirk,NY,42.4932,-79.2762
14225.0,1,0.982638888888889,0.10773401826484019,13.488489345509894,11.703862252663624,0.07453386605783867,Buffalo,NY,42.94,-78.736
14304.0,1,2.8712423896499244,0.0671613394216134,10.660768645357686,7.5295852359208535,0.10026636225266362,Niagara Falls,NY,43.1083,-78.9382
14437.0,1,0.9733637747336378,0.05474695585996956,9.328291476407916,5.435930365296804,0.0,North Dansville,NY,42.5709,-77.7131
14527.0,1,2.1404109589041096,0.07239345509893455,10.01531582952816,6.729499619482497,0.00042808219178082195,Penn Yan,NY,42.6439,-77.053
14624.0,1,0.8337614155251142,0.051464992389649925,12.306411719939119,13.709760273972602,0.04399733637747336,Rochester,NY,43.1167,-77.6767
14701.0,1,3.1844558599695585,0.11101598173515982,9.469320776255708,11.547564687975648,0.009608066971080671,Jamestown,NY,42.1534,-79.258
14743.0,1,4.543711948249619,0.0,9.826959665144598,13.281963470319635,0.0,Hinsdale,NY,42.2413,-78.3714
14845.0,3,5.571014079147641,0.07724505327245054,10.717323059360732,5.132277397260274,0.00014269406392694066,Big Flats,NY,42.1599,-76.8916
14850.0,1,2.139697488584475,0.07962328767123288,12.194206621004568,12.120195966514462,0.00428082191780822,Ithaca,NY,42.4908,-76.4583
14895.0,1,4.713755707762558,0.08147831050228312,10.998763318112633,10.396641933028919,0.010702054794520549,Wellsville,NY,42.1078,-77.9842
15010.0,3,1.271832191780822,0.0,11.15582191780822,5.002853881278539,0.020357686453576863,Beaver Falls,PA,40.7735,-80.3825
15122.0,3,3.8872241248097414,0.17950913242009134,10.454623287671234,4.072298325722984,0.003329528158295282,West Mifflin,PA,40.3552,-79.9214
15231.0,1,1.2121860730593608,0.1388888888888889,13.972555175038053,8.11111111111111,0.005517503805175039,Pittsburgh,PA,40.4814,-80.2083
15301.0,3,2.021594368340944,0.20105593607305938,8.786862633181126,4.162671232876712,0.001664764079147641,Washington,PA,40.1365,-80.2902
15522.0,1,4.094986681887367,0.08571156773211568,8.208761415525114,5.6571537290715375,0.0267789193302892,Bedford,PA,40.0853,-78.5122
15650.0,3,1.6037385844748862,0.018788051750380518,11.136700913242011,4.971128234398783,0.04276065449010655,Latrobe,PA,40.2759,-79.4048
15701.0,0,6.604832572298327,0.0,0.0,0.0,0.0009512937595129377,Indiana,PA,40.6322,-79.1055
15851.0,1,6.440877092846271,0.11986301369863014,6.468845129375952,5.333380898021309,0.005850456621004566,Reynoldsville,PA,41.1795,-78.8933
15904.0,1,4.407011035007611,0.08119292237442922,12.599790715372906,7.841514459665144,0.006088280060882801,Johnstown,PA,40.3149,-78.8307
16002.0,1,2.1881183409436837,0.3804699391171994,9.448725266362255,5.562880517503806,0.0,Butler,PA,40.7769,-79.9497
16101.0,1,3.5495148401826486,0.05731544901065449,11.888651065449013,6.640458523592086,0.0,New Castle,PA,41.0254,-80.4134
16323.0,1,2.9154775494672758,0.15986491628614918,9.996813165905632,8.962328767123289,0.0006659056316590564,Franklin,PA,41.3779,-79.8604
16335.0,1,2.300656392694064,0.09503424657534246,10.806697108066972,8.433647260273974,0.005660197869101979,Meadville,PA,41.6258,-80.2123
16505.0,1,3.0038527397260273,0.12181316590563165,11.303700532724505,6.324914383561644,0.0,Erie,PA,42.08,-80.1825
16662.0,3,3.7732591324200917,0.09023021308980214,10.369910578386607,3.7355403348554037,0.011558219178082193,Martinsburg,PA,40.2964,-78.32
16738.0,1,4.936786529680365,0.08376141552511417,11.75613584474886,11.196061643835616,0.0006659056316590564,Lewis Run,PA,41.7984,-78.6354
16803.0,3,3.688023211567732,0.01051179604261796,11.352454337899545,4.614155251141553,0.021594368340943686,State College,PA,40.8534,-77.8401
16830.0,3,6.867151826484019,0.07096651445966515,11.581763698630137,5.296280441400304,0.0,Clearfield,PA,41.0467,-78.4117
17038.0,3,3.4416381278538815,0.08000380517503806,11.155679223744292,2.1678082191780823,0.0009512937595129377,Jonestown,PA,40.4381,-76.5643
17057.0,3,3.700960806697108,0.15477549467275495,11.878805175038051,1.7798230593607307,0.013222983257229835,Middletown,PA,40.1962,-76.7725
17070.0,3,5.382990867579909,0.1337994672754947,11.19254185692542,1.492484779299848,0.0038051750380517506,New Cumberland,PA,40.2184,-76.8552
17320.0,0,1.5523211567732116,0.04009703196347032,3.1553462709284634,0.47131849315068497,0.0,Fairfield,PA,39.7341,-77.4304
17362.0,3,3.792522831050229,0.09703196347031964,9.965515601217657,1.5896594368340944,0.00014269406392694066,Spring Grove,PA,39.9194,-76.8769
17543.0,3,5.113584474885845,0.12309741248097412,10.20890410958904,1.433980213089802,0.008514079147640793,Lititz,PA,40.1206,-76.2945
17754.0,3,3.0652587519025873,0.1227644596651446,11.281440258751903,2.6012176560121767,0.0035197869101978693,Montoursville,PA,41.243,-76.9217
17870.0,3,4.478405631659057,0.13308599695586,8.894358828006089,1.791904490106545,0.0,Selinsgrove,PA,40.8193,-76.8658
18032.0,3,3.4381183409436837,0.1560597412480974,11.055127473363775,1.739202815829528,0.006754185692541857,Catasauqua,PA,40.6499,-75.4477
18103.0,3,1.6126807458143078,0.07800608828006088,10.860207382039574,1.6745148401826484,0.0,Allentown,PA,40.5704,-75.4894
18346.0,3,6.238584474885845,0.07757800608828007,10.753710045662102,4.724457762557078,0.010178843226788432,Pocono Summit,PA,41.1382,-75.3797
18641.0,3,2.061453576864536,0.1381754185692542,11.20990296803653,3.1699486301369864,0.0005232115677321156,Pittston,PA,41.3335,-75.7227
18902.0,3,1.6117294520547947,0.09270357686453577,10.266457382039574,1.5576008371385084,0.0,Doylestown,PA,40.3302,-75.1229
18951.0,0,3.862728310502283,0.23806126331811261,0.0,0.0,0.0,Quakertown,PA,40.4368,-75.3802
19114.0,3,3.035863774733638,0.14887747336377474,8.245433789954339,1.1585331050228311,0.0037576103500761037,Philadelphia,PA,40.0789,-75.0134
19153.0,3,1.3554509132420092,0.10825722983257231,11.94549086757991,1.3107876712328768,0.016409817351598174,Philadelphia,PA,39.8733,-75.2268
19320.0,3,5.369339802130899,0.019977168949771692,8.481735159817353,1.7001997716894979,0.006659056316590563,Coatesville,PA,39.979,-75.8655
19380.0,3,7.487157534246576,0.01902587519025875,8.443207762557078,1.7135178843226788,0.010464231354642313,West Chester,PA,39.9889,-75.5803
19422.0,0,1.9558599695585999,0.06849315068493152,4.919853500761035,0.49538622526636233,0.0,Blue Bell,PA,40.1376,-75.2684
19464.0,3,4.27644596651446,0.11415525114155252,10.460901826484019,1.3258181126331812,0.0,Pottstown,PA,40.238,-75.5549
19605.0,3,3.141362252663623,0.12362062404870626,11.043759512937596,1.6685216894977168,0.008894596651445968,Reading,PA,40.3734,-75.9593
19720.0,3,2.2773021308980215,0.1488299086757991,10.506278538812786,1.100646879756469,0.021879756468797567,New Castle,DE,39.6744,-75.6057
19902.0,3,1.979404490106545,0.1284246575342466,10.73458904109589,1.0006659056316591,0.018359969558599698,Dover AFB,DE,39.1295,-75.466
19947.0,3,2.7017694063926943,0.11401255707762559,11.285007610350078,0.8854166666666667,0.008323820395738205,Georgetown,DE,38.6897,-75.3624
20041.0,3,2.408818493150685,0.11415525114155252,11.281107305936073,0.9834474885844751,0.009037290715372907,Washington,VA,38.9348,-77.4473
20110.0,3,2.210140791476408,0.045186453576864544,7.512699771689498,0.6471175799086758,0.06730403348554033,Manassas,VA,38.7214,-77.5154
20175.0,3,1.9316971080669711,0.09869672754946729,10.303890791476409,0.9919140030441401,0.02853881278538813,Leesburg,VA,39.078,-77.5575
20636.0,0,0.0,0.04851598173515982,0.0,0.0,0.0009512937595129377,District 6 Patuxent,MD,38.3154,-76.5501
20670.0,3,1.7863869863013702,0.10497526636225267,9.630469939117202,0.4722697869101979,0.04946727549467275,Patuxent River,MD,38.286,-76.4118
20684.0,3,3.110873287671233,0.08223934550989347,11.03453196347032,0.5726788432267884,0.0,District 1 St. Inigoes,MD,38.146,-76.4285
20740.0,0,0.0,0.0,0.0,0.0,0.0,College Park,MD,38.9806,-76.9223
20746.0,0,1.0323915525114156,0.04414003044140031,4.285958904109589,0.307791095890411,0.0006183409436834095,Suitland,MD,38.85,-76.93
20755.0,0,0.0,0.0,0.0,0.0,0.0,Fort George G Meade,MD,39.0854,-76.7594
20762.0,3,1.5879471080669711,0.11215753424657535,9.999762176560122,0.8008466514459666,0.02482876712328767,Andrews Air Force Base,MD,38.8108,-76.867
20879.0,3,1.828529299847793,0.10944634703196349,8.558552130898022,0.9609018264840183,0.00038051750380517507,Gaithersburg,MD,39.1696,-77.1655
21005.0,3,2.6630517503805176,0.022260273972602742,12.44144786910198,1.0595985540334858,0.0010939878234398784,Aberdeen Proving Ground,MD,39.4662,-76.1688
21158.0,3,2.7573249619482496,0.07491438356164384,11.590325342465754,1.8255327245053272,0.0009512937595129377,Westminster,MD,39.6083,-77.0077
21202.0,0,0.0,0.6394121004566211,0.0,0.0,0.0,Baltimore,MD,39.2814,-76.6111
21220.0,3,3.019073439878235,0.009798325722983257,10.465087519025875,1.0244958143074583,0.05403348554033486,Middle River,MD,39.3215,-76.4065
21240.0,3,2.3580194063926943,0.1299467275494673,12.39783105022831,1.1436453576864536,0.011938736681887368,Baltimore,MD,39.1733,-76.684
21402.0,3,3.128519786910198,0.08128805175038052,9.54623287671233,0.7609874429223744,0.0006183409436834095,Annapolis,MD,38.9913,-76.4891
21520.0,0,4.4247050989345516,0.0,0.0,0.0,0.0,Accident,MD,39.5827,-79.3418
21601.0,3,1.978167808219178,0.007610350076103501,9.152397260273974,0.7701198630136987,0.044472983257229835,Easton,MD,38.8042,-76.069
21613.0,0,3.73382800608828,0.07705479452054795,0.0,0.0,0.005707762557077626,Cambridge,MD,38.5393,-76.0304
21660.0,3,2.8199676560121767,0.007610350076103501,9.027064307458144,0.7730213089802132,0.05546042617960427,Ridgely,MD,38.9701,-75.8663
21666.0,3,5.393930745814307,0.21741818873668192,10.169948630136988,0.8999714611872147,0.023449391171993912,Stevensville,MD,38.9767,-76.33
21701.0,3,3.721841704718417,0.01712328767123288,8.912766362252665,1.8499334094368343,0.03486491628614916,Frederick,MD,39.4177,-77.3698
21742.0,3,4.274210426179605,0.09194254185692544,9.054889649923897,1.2906202435312026,0.006278538812785388,Hagerstown,MD,39.7062,-77.7304
21780.0,0,6.881088280060883,0.03125,3.7880517503805176,0.6281868340943684,0.03039383561643836,Sabillasville,MD,39.645,-77.468
21804.0,3,2.8765696347031966,0.13318112633181126,8.839136225266362,0.8598744292237444,0.011463089802130899,Salisbury,MD,38.3405,-75.5103
21811.0,3,2.7914288432267886,0.11263318112633182,9.498382800608828,0.5446632420091324,0.004471080669710807,Berlin,MD,38.3104,-75.124
22060.0,3,1.1972983257229832,0.16523972602739725,9.355260654490108,0.5076579147640792,0.018027016742770168,Fort Belvoir,VA,38.715,-77.181
22134.0,3,3.9896784627092847,0.0878519786910198,9.656250000000002,0.6254280821917809,0.004375951293759513,Quantico,VA,38.5033,-77.3013
22202.0,3,0.6953006088280062,0.1191019786910198,12.347317351598175,0.912576103500761,0.02107115677321157,Arlington,VA,38.8472,-77.0345
22406.0,3,2.690258751902588,0.1464992389649924,10.662576103500761,0.870433789954338,0.004756468797564688,Fredericksburg,VA,38.3981,-77.4555
22408.0,3,0.9596175799086759,0.02853881278538813,10.253710045662102,0.5527016742770168,0.031582952815829526,Fredericksburg,VA,38.2662,-77.4494
22560.0,3,2.409674657534247,0.08989726027397262,10.132039573820396,0.6050228310502284,0.0,Tappahannock,VA,37.8606,-76.9016
22602.0,3,2.2281678082191783,0.06183409436834094,10.602882420091325,1.1377473363774735,0.007610350076103501,Winchester,VA,39.1435,-78.1444
22718.0,3,4.469891552511416,0.09227549467275493,10.403586377473363,0.7940924657534247,0.0,Elkwood,VA,38.5261,-77.8574
22728.0,3,7.365867579908676,0.0837138508371385,10.454195205479452,0.5774353120243532,0.0009512937595129377,Midland,VA,38.5876,-77.715
22835.0,3,3.2622241248097414,0.08442732115677322,10.070681126331811,1.147498097412481,0.0,Luray,VA,38.6672,-78.5011
22936.0,3,3.4853025114155254,0.09917237442922375,10.088898401826485,0.740439497716895,0.0,Earlysville,VA,38.1374,-78.4552
22960.0,3,3.3071727549467274,0.07301179604261797,10.28125,0.8273877473363775,0.0019025875190258753,Orange,VA,38.2472,-78.0456
23005.0,3,3.6348458904109595,0.11843607305936074,8.449105783866058,0.601978691019787,0.0037576103500761037,Ashland,VA,37.7081,-77.4344
23093.0,3,3.8503614916286155,0.10155060882800608,9.881326103500761,0.8649638508371386,0.0,Louisa,VA,38.0097,-77.97
23110.0,0,0.0,0.45685882800608824,0.0,0.0,0.0019025875190258753,Buena Vista,VA,37.5211,-76.7647
23185.0,0,0.0,0.5798135464231354,0.0,0.0,0.0019025875190258753,Williamsburg,VA,37.2416,-76.7167
23237.0,3,1.496242389649924,0.13941210045662103,7.603786149162862,0.35782914764079155,0.002853881278538813,North Chesterfield,VA,37.4066,-77.5224
23250.0,3,1.8309550989345513,0.14626141552511415,12.112918569254187,0.6360825722983258,0.0035197869101978693,Richmond,VA,37.5115,-77.3234
23321.0,3,1.4437785388127855,0.4954813546423136,7.4520547945205475,0.2555650684931507,0.01403158295281583,Chesapeake,VA,36.7801,-76.4488
23322.0,3,2.9038242009132422,0.1748953576864536,10.567827245053273,0.3143074581430746,0.1336092085235921,Chesapeake,VA,36.695,-76.1356
23323.0,3,4.830194063926941,0.030441400304414005,12.983637747336378,0.5520357686453577,0.0019025875190258753,Chesapeake,VA,36.6656,-76.3206
23337.0,3,2.3317161339421615,0.0923230593607306,11.447869101978693,0.5179318873668188,0.028633942161339423,Wallops Island,VA,37.9372,-75.4662
23410.0,3,2.77349695585997,0.1203386605783866,9.3125,0.5733923135464232,0.024733637747336376,Melfa,VA,37.6469,-75.7611
23434.0,3,2.2750190258751903,0.12081430745814307,10.086615296803654,0.3671993911719939,0.0009512937595129377,Suffolk,VA,36.6824,-76.6019
23455.0,3,1.7985635464231358,0.18055555555555555,9.863869863013699,0.3416095890410959,0.015458523592085235,Virginia Beach,VA,36.9036,-76.1919
23460.0,3,2.5057553272450535,0.19544330289193304,10.754518645357686,0.3050323439878234,0.024353120243531205,Virginia Beach,VA,36.8211,-76.0283
23511.0,3,2.2305936073059365,0.1348458904109589,10.073725266362255,0.2899543378995434,0.028776636225266366,Norfolk,VA,36.9375,-76.2893
23602.0,3,2.787909056316591,0.1517789193302892,11.668711948249621,0.3811834094368341,0.0019025875190258755,Newport News,VA,37.1322,-76.494
23604.0,3,1.5217846270928463,0.1942066210045662,10.75133181126332,0.32791095890410965,0.008038432267884322,Fort Eustis,VA,37.1325,-76.6088
23665.0,3,1.9278443683409439,0.06245243531202436,10.142028158295282,0.3528348554033486,0.008751902587519025,Hampton,VA,37.0829,-76.3605
23803.0,3,2.415953196347032,0.05517503805175038,13.199391171993913,0.4306031202435312,0.0009512937595129377,North Dinwiddie,VA,37.1838,-77.5074
23847.0,0,2.1500190258751903,0.2363013698630137,4.887414383561644,0.5136986301369864,0.0,Emporia,VA,36.6869,-77.4828
23851.0,3,2.5473268645357687,0.0846175799086758,9.851360350076103,0.3548325722983257,0.0009512937595129377,Carrsville,VA,36.7003,-76.9021
23888.0,3,4.442113774733638,0.11158675799086759,10.995814307458144,0.3842275494672755,0.0,Wakefield,VA,36.9827,-77.0014
23901.0,3,3.259608066971081,0.09227549467275493,9.525684931506849,1.0435692541856927,0.0,Farmville,VA,37.3539,-78.4372
23950.0,0,0.0,0.36838850837138515,0.7440068493150686,0.0,0.0,La Crosse,VA,36.6883,-78.0545
24019.0,3,1.1297089041095891,0.13403729071537293,11.317874809741248,0.7894311263318113,0.009037290715372908,Roanoke,VA,37.3169,-79.9742
24060.0,3,3.364916286149163,0.0992199391171994,11.43488394216134,1.7984208523592085,0.0,Blacksburg,VA,37.2076,-80.4078
24084.0,3,3.310264459665145,0.06254756468797565,9.897688356164384,2.0712043378995437,0.0019025875190258753,Cloyd,VA,37.1373,-80.6785
24112.0,3,2.5426655251141552,0.12271689497716896,11.353025114155251,0.5438070776255708,0.0019025875190258753,Horsepasture,VA,36.6272,-80.0133
24210.0,3,1.6447869101978694,0.07134703196347032,13.79689878234399,2.3278158295281584,0.0,Abingdon,VA,36.6871,-82.0333
24263.0,3,4.525637366818874,0.18583523592085235,11.9226598173516,1.3438926940639269,0.003234398782343988,District 2,VA,36.6541,-83.2178
24293.0,3,3.347127092846271,0.04804033485540335,12.107353500761036,3.0061358447488584,0.0,Wise,VA,36.9875,-82.53
24343.0,3,3.7312119482496198,0.305365296803653,9.136510654490108,1.6614345509893456,0.012128995433789955,Hillsville,VA,36.7661,-80.8236
24368.0,3,5.057553272450534,0.06183409436834094,12.9226598173516,2.473601598173516,0.014269406392694065,Rural Retreat,VA,36.8949,-81.3499
24445.0,3,6.948297184170473,0.07714992389649925,12.885606925418571,4.274781202435312,0.035435692541856925,Hot Springs,VA,37.9514,-79.8339
24486.0,3,3.079337899543379,0.08561643835616439,9.952910958904111,0.9225171232876713,0.0,Weyers Cave,VA,38.2638,-78.8964
24502.0,3,3.0726312785388132,0.11334665144596652,10.405346270928463,0.6506849315068494,0.0,Lynchburg,VA,37.3262,-79.2028
24540.0,3,2.058076484018265,0.13094558599695585,8.9705098934551,0.4101978691019787,0.0035673515981735162,Danville,VA,36.5729,-79.3361
24609.0,3,4.256801750380518,0.05707762557077626,12.231497336377474,3.3335711567732114,0.0,Western,VA,37.062,-81.7977
24701.0,3,2.4136225266362255,0.07957572298325723,12.197631278538815,4.045138888888889,0.0,Bluefield,WV,37.2958,-81.2077
24818.0,3,4.100504185692542,0.0,10.457144216133942,4.3400399543379,0.0,Brenton,WV,37.6004,-81.5593
24901.0,3,6.205289193302892,0.024733637747336376,10.757372526636226,3.2090468036529685,0.005707762557077626,Lewisburg,WV,37.8583,-80.3995
25311.0,3,5.40548896499239,0.09831621004566211,14.976122526636226,4.622193683409437,0.0029965753424657537,Charleston,WV,38.3794,-81.5914
25405.0,3,3.7219843987823444,0.09470129375951293,9.299752663622527,1.1894977168949772,0.01874048706240487,Martinsburg,WV,39.4037,-77.975
25530.0,3,4.185264459665145,0.16609589041095893,11.628424657534246,2.018455098934551,0.00038051750380517507,Kenova,WV,38.365,-82.555
25550.0,3,1.4737918569254185,0.01902587519025875,9.599267503805176,4.319587138508371,0.0019025875190258753,Point Pleasant,WV,38.9146,-82.0986
25813.0,3,2.415525114155251,0.11054033485540336,12.80669710806697,4.357496194824962,0.0004756468797564689,Beaver,WV,37.7873,-81.1242
26003.0,3,3.2854832572298327,0.12224124809741249,10.803605403348556,3.549705098934551,0.004518645357686454,Wheeling,WV,40.175,-80.6463
26187.0,3,5.073915525114156,0.09950532724505327,11.517456240487062,2.427321156773212,0.0003329528158295282,Williamstown,WV,39.3451,-81.4392
26201.0,1,6.362490487062405,0.0,5.985540334855404,3.6004090563165905,0.0009512937595129377,Buckhannon,WV,39.001,-80.2712
26241.0,3,6.861919710806697,0.1670947488584475,14.271451674277017,6.421232876712329,0.0005707762557077626,Elkins,WV,38.8853,-79.8528
26330.0,3,3.4196632420091326,0.12623668188736684,13.418141171993911,3.9307458143074583,0.0004756468797564689,Bridgeport,WV,39.2966,-80.2281
26505.0,3,2.7969939117199396,0.10088470319634704,10.515553652968038,3.6191495433789957,0.00014269406392694066,Morgantown,WV,39.6499,-79.9206
26601.0,3,4.164526255707763,0.1670947488584475,13.051084474885847,3.9945776255707766,0.0004756468797564689,Sutton,WV,38.6869,-80.6517
26767.0,0,3.0167903348554033,0.012366818873668188,5.415239726027398,1.081383181126332,0.0038051750380517506,Wiley Ford,WV,39.6182,-78.7598
26847.0,3,5.355688736681888,0.06630517503805176,9.922945205479452,2.0105593607305936,0.025827625570776256,Petersburg,WV,38.9949,-79.1459
27030.0,3,2.6226693302891935,0.3807553272450533,11.86529680365297,0.44805936073059366,0.0,Mount Airy,NC,36.4567,-80.5548
27048.0,3,3.775922754946728,0.040905631659056314,11.037861491628615,0.49110540334855407,0.0,Stoneville,NC,36.4372,-79.851
27105.0,3,2.436073059360731,0.1718512176560122,8.641267123287673,0.38294330289193307,0.00019025875190258754,Winston Salem,NC,36.1335,-80.2244
27205.0,3,1.8172089041095891,0.02758751902587519,10.452673135464233,0.1650494672754947,0.0,Asheboro,NC,35.6527,-79.8942
27215.0,3,2.044568112633181,0.1276160578386606,9.964897260273974,0.3826103500761035,0.0,Burlington,NC,36.0475,-79.4737
27292.0,3,2.0505136986301373,0.0684931506849315,10.26279490106545,0.3538812785388128,0.0,Lexington,NC,35.7811,-80.3038
27330.0,3,4.1909246575342465,0.021879756468797563,10.722983257229833,0.23164003044140033,0.0019025875190258753,Sanford,NC,35.5825,-79.1014
27344.0,3,5.499904870624048,0.021879756468797563,10.72464802130898,0.24876331811263316,0.0019025875190258753,Siler City,NC,35.704,-79.504
27409.0,3,2.3334760273972606,0.1849790715372907,11.667427701674278,0.3778063165905632,0.006230974124809743,Greensboro,NC,36.0969,-79.9432
27516.0,0,1.108590182648402,0.09817351598173517,2.6992009132420094,0.15620243531202438,0.0,Chapel Hill,NC,35.935,-79.0659
27531.0,3,2.3000856164383565,0.12989916286149164,8.94254185692542,0.16276636225266364,0.013413242009132421,Goldsboro,NC,35.3446,-77.9458
27549.0,3,3.9794996194824965,0.040667808219178085,9.734351217656013,0.30370053272450537,0.0,Louisburg,NC,36.0229,-78.3341
27560.0,3,2.370338660578387,0.17218417047184173,11.613727168949772,0.26212899543379,0.0003329528158295282,Morrisville,NC,35.8922,-78.7819
27565.0,3,3.8936453576864536,0.03614916286149163,9.485825722983257,0.37195585996955866,0.0,Oxford,NC,36.3635,-78.5289
27577.0,3,2.451246194824962,0.11415525114155252,11.002425799086758,0.16148211567732118,0.0,Smithfield,NC,35.5408,-78.3903
27583.0,3,4.109589041095891,0.021879756468797563,10.746765601217657,0.45828576864535775,0.0,Timberlake,NC,36.285,-78.9842
27805.0,3,4.971461187214612,0.09441590563165907,12.6431697108067,0.3341419330289193,0.0009512937595129377,Aulander,NC,36.2975,-77.1708
27822.0,3,3.5626902587519025,0.15858066971080673,9.200675418569254,0.2093321917808219,0.0019501522070015222,Elm City,NC,35.8502,-77.8952
27824.0,3,5.388270547945206,0.0678748097412481,13.123049847792998,0.15639269406392695,0.015696347031963473,Engelhard,NC,35.6667,-75.9
27834.0,3,4.002806316590563,0.11986301369863014,9.958856544901067,0.24281773211567734,0.007610350076103501,Greenville,NC,35.6374,-77.3851
27839.0,3,3.6548706240487068,0.03614916286149163,10.541523972602741,0.3281963470319635,0.0,Halifax,NC,36.33,-77.635
27863.0,3,3.1145357686453576,0.03424657534246576,9.276303272450534,0.1769406392694064,0.0038051750380517506,Pikeville,NC,35.4606,-77.9649
27870.0,3,4.6948725266362255,0.03614916286149163,10.571965372907155,0.3405631659056317,0.0,Roanoke Rapids,NC,36.4395,-77.7093
27886.0,0,5.072536149162862,0.06754185692541857,5.345081811263318,0.12057648401826485,0.0009512937595129377,Tarboro,NC,35.9373,-77.5465
27889.0,3,2.4980974124809743,0.030441400304414005,10.584094368340944,0.12533295281582954,0.17646499238964994,Washington,NC,35.5705,-77.0498
27909.0,3,2.27939497716895,0.1953957382039574,11.208285768645357,0.21018835616438358,0.0646404109589041,Elizabeth City,NC,36.2577,-76.1716
27932.0,3,1.9589516742770168,0.03710045662100457,8.68816590563166,0.002853881278538813,0.006659056316590563,Edenton,NC,36.0277,-76.5671
27936.0,3,5.447916666666667,0.22873858447488588,10.182886225266364,0.08252473363774734,0.39745053272450537,Frisco,NC,35.2322,-75.6225
27948.0,3,1.2709284627092847,0.09512937595129377,9.881801750380518,0.10559360730593607,0.0,Kill Devil Hills,NC,36.0182,-75.6713
27954.0,3,1.2825818112633183,0.06873097412480975,7.854594748858448,0.07967085235920854,0.1291381278538813,Manteo,NC,35.919,-75.6955
27956.0,3,1.8250570776255708,0.0884703196347032,9.911291856925418,0.2356830289193303,0.0009512937595129377,Maple,NC,36.3989,-76.0164
28027.0,3,2.7301655251141552,0.024733637747336376,8.293093607305936,0.2905726788432268,0.026017884322678847,Concord,NC,35.3896,-80.7074
28056.0,3,3.901398401826484,0.1688070776255708,9.686501141552512,0.209189497716895,0.0,Gastonia,NC,35.1969,-81.1555
28080.0,3,2.6940639269406392,0.02663622526636225,10.23853691019787,0.3548325722983257,0.0,Iron Station,NC,35.4833,-81.1612
28110.0,3,2.826721841704719,0.1292808219178082,9.657819634703197,0.147498097412481,0.0029490106544901072,Monroe,NC,35.0147,-80.6242
28127.0,3,1.9600932267884321,0.0870433789954338,10.090372907153728,0.21161529680365299,0.0,New London,NC,35.4167,-80.1508
28139.0,3,2.923087899543379,0.07348744292237444,11.992960426179604,0.42808219178082196,0.0,Rutherfordton,NC,35.4282,-81.9351
28147.0,3,3.1169140030441405,0.05969368340943683,9.524828767123289,0.12628424657534248,0.0,Salisbury,NC,35.6442,-80.5236
28152.0,3,2.92570395738204,0.056126331811263315,8.691257610350076,0.2825342465753425,0.0009512937595129377,Cleveland,NC,35.2556,-81.5986
28170.0,3,5.7774448249619486,0.03591133942161339,9.610207382039574,0.10273972602739727,0.0,Wadesboro,NC,35.0194,-80.0784
28278.0,3,1.918807077625571,0.1607210806697108,10.269073439878236,0.17993721461187215,0.002520928462709285,Township 2 Berryhill,NC,35.2225,-80.9543
28306.0,3,2.3105974124809743,0.14968607305936074,7.790858066971081,0.09175228310502283,0.02254566210045662,Fayetteville,NC,34.9896,-78.8801
28308.0,3,1.3324771689497716,0.051464992389649925,9.971699010654492,0.08028919330289194,0.009275114155251143,Pope Army Airfield,NC,35.1753,-79.0077
28311.0,3,1.2213660578386605,0.10183599695585997,9.954528158295282,0.10863774733637749,0.0007610350076103501,Fayetteville,NC,35.1314,-78.9316
28327.0,3,2.25,0.10806697108066972,9.739440639269407,0.1877853881278539,0.0,Carthage,NC,35.2372,-79.3911
28328.0,0,0.3614916286149163,0.381468797564688,3.3521213850837137,0.039954337899543384,0.0,Clinton,NC,34.9752,-78.3628
28337.0,3,2.3104547184170476,0.11629566210045662,8.214659436834095,0.07134703196347032,0.0,Elizabethtown,NC,34.6042,-78.579
28339.0,3,1.9239916286149163,0.07824391171993912,8.58019406392694,0.125808599695586,0.0,Erwin,NC,35.3786,-78.7336
28347.0,3,2.4964802130898023,0.05117960426179605,11.635606925418571,0.1576769406392694,0.001189117199391172,Hoffman,NC,35.0366,-79.4973
28349.0,3,4.6875,0.05898021308980213,9.019453957382039,0.13508371385083714,0.0009512937595129377,Kenansville,NC,34.9994,-77.98
28358.0,0,0.7991343226788432,0.045234018264840185,5.922659817351599,0.035388127853881284,0.008133561643835618,Lumberton,NC,34.6082,-79.059
28364.0,3,3.5768169710806696,0.2135654490106545,7.800323439878234,0.037576103500761036,0.011082572298325724,Maxton,NC,34.7913,-79.3683
28379.0,3,1.9943873668188739,0.052321156773211565,10.431887366818875,0.2635083713850837,0.0,Rockingham,NC,34.8954,-79.7575
28405.0,3,1.5563165905631662,0.2944254185692542,8.539526255707763,0.023544520547945206,0.049039193302891936,Wilmington,NC,34.2706,-77.9026
28461.0,3,1.3092180365296804,0.039954337899543384,9.716990106544902,0.01902587519025875,0.004756468797564688,Southport,NC,33.9292,-78.0722
28472.0,3,2.3974980974124813,0.0380517503805175,7.344939117199392,0.025684931506849317,0.0,Whiteville,NC,34.2753,-78.7146
28504.0,3,2.6803652968036533,0.009512937595129375,8.824296042617961,0.1856925418569254,0.025922754946727553,Kinston,NC,35.3314,-77.6088
28516.0,3,1.3401826484018267,0.20100837138508373,9.208333333333334,0.076912100456621,0.024638508371385082,Beaufort,NC,34.7326,-76.6566
28532.0,3,2.0038527397260273,0.15900875190258754,10.14673706240487,0.0717275494672755,0.11586757990867581,Havelock,NC,34.8972,-76.8813
28540.0,3,1.7675513698630139,0.1376522070015221,10.326436453576864,0.07496194824961948,0.12495243531202435,Jacksonville,NC,34.7063,-77.4407
28562.0,3,3.2538527397260277,0.15425228310502284,10.710473744292237,0.0946537290715373,0.010797184170471843,New Bern,NC,35.0675,-77.0472
28570.0,3,2.0557458143074583,0.06863584474885845,9.379946727549468,0.06906392694063927,0.004185692541856925,Newport,NC,34.694,-77.0294
28574.0,3,3.4384988584474887,0.1448820395738204,10.117532343987824,0.11482115677321157,0.0037576103500761037,Richlands,NC,34.8251,-77.6189
28601.0,3,3.910911339421614,0.13955479452054795,8.324391171993913,0.38379946727549463,0.0,Hickory,NC,35.7422,-81.3822
28607.0,3,3.2380612633181127,0.09612823439878235,14.47269786910198,2.778871765601218,0.21332762557077628,New River,NC,36.1986,-81.6517
28640.0,3,6.041666666666667,0.08751902587519025,13.621575342465754,2.4778824200913245,0.14768835616438358,Jefferson,NC,36.4324,-81.4197
28655.0,3,5.019501522070016,0.106544901065449,10.412861491628615,0.7255993150684932,0.0,Morganton,NC,35.8192,-81.6097
28659.0,3,3.509322678843227,0.08656773211567732,10.560835235920852,0.5222602739726028,0.0009512937595129377,North Wilkesboro,NC,36.2188,-81.1002
28677.0,3,2.37609398782344,0.02758751902587519,10.069444444444446,0.38242009132420096,0.0,Statesville,NC,35.7636,-80.9473
28732.0,3,3.770690639269407,0.2292142313546423,11.960140791476407,0.8606354642313547,0.005707762557077626,Fletcher,NC,35.4319,-82.5375
28734.0,3,8.412766362252665,0.026874048706240487,11.651683789954339,0.5229737442922375,0.0,Franklin,NC,35.2228,-83.415
28901.0,3,4.08970700152207,0.040762937595129375,15.99857305936073,0.4728881278538813,0.0,Andrews,NC,35.1939,-83.8618
29020.0,3,2.6940639269406392,0.06183409436834094,7.144216133942162,0.03710045662100457,0.0,Camden,SC,34.2836,-80.5649
29044.0,3,4.144882039573821,0.09950532724505327,9.43269596651446,0.040429984779299856,0.0016647640791476407,Eastover,SC,33.9208,-80.8013
29102.0,3,3.601598173515982,0.08276255707762557,8.650114155251142,0.051369863013698634,0.002853881278538813,Manning,SC,33.587,-80.209
29108.0,3,2.6588660578386607,0.032343987823439876,9.343607305936073,0.05993150684931507,0.010464231354642313,Newberry,SC,34.3061,-81.6414
29115.0,3,2.5775780060882805,0.12485730593607307,9.149305555555555,0.04176179604261796,0.001569634703196347,Orangeburg,SC,33.4568,-80.8595
29152.0,3,2.7534722222222228,0.15715372907153732,8.9392598934551,0.04409246575342466,0.012699771689497718,Shaw AFB,SC,33.9727,-80.4706
29153.0,3,3.5283485540334856,0.0,14.564307458143075,0.0532724505327245,0.0,Sumter,SC,33.995,-80.3613
29170.0,3,3.6064973363774735,0.21546803652968038,9.047136605783868,0.029299847792998476,0.003234398782343988,West Columbia,SC,33.9423,-81.118
29180.0,3,2.6750380517503807,0.05041856925418569,8.671042617960428,0.052321156773211565,0.0,Winnsboro,SC,34.315,-81.109
29205.0,3,1.8267694063926943,0.203529299847793,7.534151445966515,0.1456906392694064,0.0006659056316590564,Columbia,SC,33.972,-80.9938
29360.0,3,3.771879756468798,0.08466514459665145,9.275114155251142,0.16552511415525115,0.0,Laurens,SC,34.5071,-81.9472
29376.0,3,1.800799086757991,0.11510654490106545,9.961948249619482,0.2654109589041096,0.0,Roebuck,SC,34.9157,-81.9565
29404.0,3,4.2652207001522076,0.2321632420091324,9.789716514459666,0.04466324200913242,0.028633942161339423,Charleston Afb,SC,32.8986,-80.0405
29440.0,3,2.382039573820396,0.07800608828006088,8.897450532724505,0.04471080669710807,0.006659056316590563,Georgetown,SC,33.3117,-79.3196
29455.0,2,7.7235540334855415,0.0884703196347032,7.63603500761035,0.03424657534246576,0.005707762557077626,Johns Island,SC,32.701,-80.003
29461.0,3,3.125,0.21404109589041098,8.915525114155251,0.0580289193302892,0.0,Moncks Corner,SC,33.1855,-80.0362
29466.0,3,2.8700532724505328,2.2707382039573822,8.59398782343988,0.030441400304414005,0.026636225266362255,Mount Pleasant,SC,32.8978,-79.7829
29483.0,3,2.1727549467275495,0.03710045662100457,7.4933409436834095,0.08942161339421614,0.0,Summerville,SC,33.063,-80.279
29488.0,3,2.7806316590563167,0.05993150684931507,8.924086757990867,0.04471080669710807,0.0,Walterboro,SC,32.921,-80.6406
29506.0,3,2.9834474885844755,0.1641457382039574,8.965896118721462,0.07363013698630137,0.0036624809741248104,Florence,SC,34.1878,-79.7308
29512.0,3,2.835806697108067,0.0989345509893455,8.672945205479452,0.0580289193302892,0.0,Bennettsville,SC,34.6217,-79.7344
29520.0,3,4.0896118721461185,0.039954337899543384,8.876522070015222,0.061834094368340954,0.002853881278538813,Cheraw,SC,34.7128,-79.9622
29527.0,2,10.400494672754947,0.10273972602739727,9.465372907153728,0.04471080669710807,0.0,Conway,SC,33.8285,-79.1222
29540.0,3,2.850551750380518,0.13070776255707764,9.575675418569254,0.06630517503805176,0.004471080669710807,Darlington,SC,34.4494,-79.8901
29550.0,0,2.3420852359208526,0.3529299847792998,4.567161339421613,0.042808219178082196,0.0,Hartsville,SC,34.4031,-80.1192
29556.0,3,2.9918188736681888,0.2549467275494673,8.507420091324201,0.07039573820395738,0.0,Kingstree,SC,33.7172,-79.857
29574.0,3,4.434931506849315,0.05517503805175038,9.548135464231354,0.04185692541856925,0.0009512937595129377,Mullins,SC,34.181,-79.335
29577.0,3,1.1187690258751903,0.18236301369863014,8.504233257229833,0.02045281582952816,0.03805175038051751,Myrtle Beach,SC,33.6797,-78.9283
29582.0,3,2.4511986301369864,0.16238584474885845,9.317351598173516,0.009608066971080671,0.010369101978691021,North Myrtle Beach,SC,33.8162,-78.7204
29605.0,3,2.2756849315068495,0.030441400304414005,8.418521689497718,0.16623858447488585,0.01788432267884323,Greenville,SC,34.7583,-82.3764
29607.0,3,1.9163337138508374,0.11900684931506851,10.956811263318114,0.22084284627092846,0.00019025875190258754,Greenville,SC,34.8487,-82.35
29626.0,3,2.2642218417047184,0.14188546423135465,10.022165144596652,0.19482496194824964,0.0015696347031963472,Anderson,SC,34.4978,-82.7097
29649.0,3,3.3183504566210047,0.14535768645357688,9.709189497716896,0.10954147640791477,0.0,Greenwood,SC,34.2487,-82.1591
29651.0,3,2.5119387366818877,0.16229071537290718,9.594558599695587,0.26583904109589046,0.0067066210045662105,Greer,SC,34.8839,-82.2208
29657.0,3,3.5483257229832574,0.009512937595129375,11.649543378995434,0.2768264840182649,0.0009512937595129377,Liberty,SC,34.81,-82.7029
29678.0,3,3.5359589041095894,0.13741438356164384,10.1101598173516,0.1563451293759513,0.0,Seneca,SC,34.6722,-82.8814
29706.0,3,2.9946727549467274,0.1322298325722983,10.431887366818875,0.19596651445966518,0.0,Chester,SC,34.7893,-81.1958
29720.0,0,4.87347792998478,0.2558980213089802,5.270167427701674,0.021879756468797563,0.0,Lancaster,SC,34.7229,-80.8546
29732.0,3,3.2311643835616444,0.13013698630136988,9.669663242009133,0.10654490106544902,0.0003329528158295282,Rock Hill,SC,34.9878,-81.0572
29805.0,3,2.7673135464231353,0.0808599695585997,9.445395738203958,0.02853881278538813,0.0,Aiken,SC,33.6509,-81.6821
29812.0,0,2.742579908675799,0.0580289193302892,6.552511415525115,0.009512937595129377,0.0009512937595129377,Barnwell,SC,33.2578,-81.3883
29906.0,3,2.3733352359208526,0.17636986301369864,7.852644596651446,0.039859208523592086,0.01874048706240487,Beaufort,SC,32.4774,-80.7232
29907.0,2,7.671232876712329,0.12176560121765602,7.327815829528158,0.007610350076103501,0.43188736681887374,Beaufort,SC,32.4122,-80.6344
29926.0,3,2.0186929223744294,0.0,7.034817351598174,0.03353310502283105,0.1145357686453577,Hilton Head Island,SC,32.2244,-80.6975
30046.0,3,2.302844368340944,0.0695871385083714,10.229404490106544,0.12980403348554034,0.005707762557077626,Lawrenceville,GA,33.9829,-83.9584
30054.0,3,3.280679223744292,0.11491628614916287,9.3914098173516,0.1294710806697108,0.005707762557077626,Oxford,GA,33.6325,-83.8496
30069.0,3,1.4295091324200913,0.12095700152207002,11.548135464231356,0.19901065449010655,0.0002378234398782344,Marietta,GA,33.9154,-84.5163
30107.0,3,3.8220605022831053,0.0,10.646356544901066,0.24995243531202435,0.0,Ball Ground,GA,34.3122,-84.4222
30117.0,3,2.628424657534247,0.0,12.284484398782345,0.2675513698630137,0.0,Carrollton,GA,33.631,-85.152
30120.0,3,1.9758371385083717,0.1649543378995434,8.277302130898022,0.21546803652968038,0.0,Cartersville,GA,34.1159,-84.8506
30144.0,3,1.3049372146118723,0.04637557077625571,9.719843987823442,0.15315829528158298,0.05484208523592086,Kennesaw,GA,34.0147,-84.5964
30157.0,3,4.114440639269406,0.0,11.221033105022832,0.3427035768645358,0.0009512937595129377,Dallas,GA,33.912,-84.941
30165.0,3,2.9214231354642313,0.1870719178082192,8.728453196347033,0.14664193302891934,0.0,Rome,GA,34.3478,-85.1611
30224.0,0,0.0,0.0,0.9662766362252664,0.0,0.0,Griffin,GA,33.227,-84.275
30240.0,3,3.3930270167427707,0.0,8.95880898021309,0.05898021308980213,0.0,Lagrange,GA,33.0062,-85.0661
30263.0,3,1.9632324961948249,0.0,8.971651445966515,0.07705479452054795,0.0,Newnan,GA,33.3116,-84.7698
30269.0,3,2.5733447488584478,0.20029490106544903,9.270119863013699,0.08594939117199392,0.0002853881278538813,Peachtree City,GA,33.3544,-84.5689
30286.0,3,2.8317636986301373,0.0,8.808266742770167,0.02949010654490107,0.0009512937595129377,Thomaston,GA,32.9539,-84.2594
30320.0,3,2.0014745053272454,0.18141171993911723,12.233209665144598,0.12343036529680367,0.007610350076103501,Atlanta,GA,33.6301,-84.4418
30336.0,3,1.152349695585997,0.1616248097412481,10.458904109589042,0.11800799086757992,0.0,Atlanta,GA,33.7776,-84.5246
30341.0,3,2.4663242009132422,0.16248097412480975,8.889935312024354,0.13356164383561644,0.0,Atlanta,GA,33.8784,-84.298
30401.0,3,1.923087899543379,0.0,9.457762557077626,0.025684931506849317,0.0009512937595129377,Swainsboro,GA,32.6091,-82.3699
30417.0,3,4.40330098934551,0.0,8.245814307458144,0.0863299086757991,0.0,Claxton,GA,32.1951,-81.8696
30461.0,3,2.5597412480974127,0.0,8.478738584474886,0.026636225266362255,0.0,Statesboro,GA,32.4831,-81.7372
30467.0,3,2.3581145357686455,0.0,7.184313165905632,0.024733637747336376,0.010702054794520549,Sylvania,GA,32.6453,-81.5971
30474.0,3,2.1552511415525117,0.0,7.7480022831050235,0.00856164383561644,0.0,Vidalia,GA,32.1927,-82.3712
30501.0,3,2.918283866057839,0.18631088280060884,10.640743911719941,0.17427701674277016,0.0005232115677321156,Gainesville,GA,34.2719,-83.8303
30512.0,3,5.224885844748859,0.048373287671232876,14.8382800608828,0.5399543378995434,0.0,Blairsville,GA,34.8544,-83.9973
30529.0,0,0.06278538812785389,0.0,0.18455098934550992,0.014269406392694065,0.0,Commerce,GA,34.174,-83.5607
30577.0,3,2.0007134703196345,0.0,11.021499238964994,0.2148972602739726,0.0,Toccoa,GA,34.594,-83.296
30605.0,3,2.9032058599695585,0.17218417047184173,8.836520167427702,0.11101598173515982,0.0,Athens,GA,33.9486,-83.3263
30635.0,0,3.0156012176560125,0.01783675799086758,6.600266362252664,0.0580289193302892,0.0,Elberton,GA,34.095,-82.8158
30642.0,3,2.775875190258752,0.0,9.553843226788432,0.05826674277016743,0.0,Greensboro,GA,33.5978,-83.1389
30673.0,0,3.0156012176560125,0.01783675799086758,6.600266362252664,0.0580289193302892,0.0,Washington,GA,33.7797,-82.8164
30680.0,3,2.5403348554033487,0.0,10.73601598173516,0.07981354642313547,0.0,Winder,GA,33.9829,-83.6674
30721.0,3,2.189164764079148,0.0,9.879661339421615,0.4870624048706241,0.0009512937595129377,Dalton,GA,34.7217,-84.8689
30824.0,3,2.860064687975647,0.17313546423135465,7.4961948249619486,0.042808219178082196,0.0,Thomson,GA,33.5297,-82.5164
30904.0,3,2.765125570776256,0.17123287671232879,8.912005327245055,0.02958523592085236,0.0002853881278538813,Augusta,GA,33.4669,-82.0384
30906.0,3,5.965753424657535,0.20005707762557076,9.195300608828006,0.03267694063926941,0.005327245053272451,Augusta,GA,33.3644,-81.9633
31006.0,3,5.539859208523593,0.16290905631659056,10.066352739726028,0.018074581430745813,0.0,Butler,GA,32.567,-84.251
31015.0,3,1.2324010654490107,0.0,8.238203957382039,0.013318112633181127,0.035197869101978696,Cordele,GA,31.9888,-83.7739
31021.0,3,3.487728310502283,0.0,8.211567732115679,0.024733637747336376,0.0,Dublin,GA,32.5633,-82.9854
31023.0,2,7.883847031963471,0.0,7.766124429223745,0.022022450532724506,0.04566210045662101,Eastman,GA,32.214,-83.128
31061.0,3,2.5263508371385086,0.0,8.23720509893455,0.04375951293759513,0.0,Milledgeville,GA,33.1542,-83.2406
31082.0,0,1.8490772450532724,0.11510654490106545,6.499714611872147,0.02663622526636225,0.0,Sandersville,GA,32.9667,-82.8382
31098.0,3,1.6561548706240485,0.09593797564687977,7.844939117199392,0.010606925418569255,0.0010464231354642313,Warner Robins,GA,32.6401,-83.5918
31216.0,3,3.0021404109589045,0.22326864535768648,6.937500000000001,0.01664764079147641,0.001189117199391172,Macon,GA,32.6889,-83.6529
31314.0,3,2.5650209284627095,0.1028824200913242,7.647117579908677,0.036101598173515985,0.0014269406392694065,Fort Stewart,GA,31.8872,-81.5624
31408.0,3,3.5168854642313545,0.2611301369863014,7.262414383561644,0.011130136986301371,0.013080289193302891,Port Wentworth,GA,32.1314,-81.2023
31409.0,3,1.4118626331811264,0.22902397260273974,7.215230213089803,0.035292998477929986,0.012366818873668188,Savannah,GA,32.01,-81.1457
31503.0,3,3.805412861491629,0.0,8.722412480974127,0.011415525114155252,0.0009512937595129377,Waycross,GA,31.2504,-82.3957
31510.0,3,4.198963089802131,0.18816590563165908,6.4606640030441405,0.0075152207001522075,0.0,Alma,GA,31.5401,-82.5074
31522.0,3,1.840658295281583,0.185074200913242,7.270119863013699,0.004851598173515982,0.013175418569254185,Saint Simons Island,GA,31.1522,-81.3908
31525.0,2,8.63037480974125,0.11153919330289193,8.03343797564688,0.0,0.02949010654490107,Everett,GA,31.2589,-81.4661
31535.0,0,2.2507610350076104,0.0,6.5774353120243525,0.010464231354642313,0.0019025875190258753,Douglas,GA,31.4767,-82.8606
31539.0,3,2.068826103500761,0.0,7.31140601217656,0.015220700152207004,0.0,Hazlehurst,GA,31.885,-82.647
31546.0,3,3.643502663622527,0.0009037290715372908,8.775732496194825,0.00856164383561644,0.0,Jesup,GA,31.554,-81.8825
31601.0,3,3.456573439878235,0.19958143074581433,7.881516362252665,0.001617199391171994,0.0732496194824962,Valdosta,GA,30.7763,-83.2739
31634.0,0,2.064307458143075,0.0,5.518788051750381,0.00856164383561644,0.0009512937595129377,Homerville,GA,31.0559,-82.7741
31699.0,3,2.74705098934551,0.11191971080669712,7.552606544901066,0.004661339421613395,0.005279680365296803,Moody Afb,GA,30.9791,-83.1925
31709.0,3,2.885369101978691,0.0,9.91795091324201,0.0145072298325723,0.0,Americus,GA,32.1108,-84.1888
31721.0,3,2.3710521308980215,0.2133751902587519,8.322203196347033,0.008656773211567732,0.05455669710806697,Albany,GA,31.5365,-84.1957
31750.0,0,1.113013698630137,0.0,3.622764459665145,0.007610350076103501,0.0,Fitzgerald,GA,31.6839,-83.2709
31757.0,3,2.2148496955859973,0.0,7.801322298325724,0.039003044140030446,0.0,Thomasville,GA,30.902,-83.881
31768.0,3,2.468274353120244,0.0,8.077435312024354,0.0038051750380517506,0.0,Moultrie,GA,31.0849,-83.8033
31788.0,0,3.186453576864536,0.0,6.521974885844749,0.0038051750380517506,0.0007134703196347033,Moultrie,GA,31.1377,-83.7041
31794.0,0,1.2370148401826484,0.0,5.593417047184171,0.009512937595129375,0.0019025875190258753,Tifton,GA,31.429,-83.489
31905.0,3,6.2537576103500765,0.23554033485540335,9.146118721461189,0.019786910197869104,0.0006183409436834095,Fort Benning,GA,32.3239,-84.9826
31909.0,3,1.2512366818873668,0.2205574581430746,8.987490487062406,0.027254566210045666,0.0044235159817351604,Columbus,GA,32.5161,-84.9422
32025.0,0,5.6880232115677325,0.11320395738203957,5.054699391171995,0.006659056316590563,0.0,Lake City,FL,30.1838,-82.5684
32034.0,0,2.080955098934551,0.19301750380517502,4.945871385083714,0.0,0.007610350076103501,Fernandina Beach,FL,30.6118,-81.4612
32091.0,0,2.133609208523592,0.3596366057838661,3.497479071537291,0.0012842465753424657,0.001189117199391172,Starke,FL,29.8448,-82.0475
32095.0,3,4.702245053272451,0.17128044140030443,7.516124429223745,0.004090563165905632,0.04704147640791477,Saint Augustine,FL,29.9592,-81.341
32114.0,3,4.959855403348555,0.29304604261796047,8.950960806697108,0.0,0.0190734398782344,Daytona Beach,FL,29.1735,-81.0719
32159.0,0,1.882420091324201,0.4363108828006088,5.007087138508372,0.0015220700152207003,0.018027016742770168,Lady Lake,FL,28.9444,-81.9701
32164.0,0,1.9718417047184174,0.0,4.207239345509894,0.0,0.07605593607305935,Palm Coast,FL,29.4674,-81.2063
32168.0,0,0.9278919330289194,0.0,3.532439117199391,0.0,0.10278729071537292,New Smyrna Beach,FL,29.0569,-80.9491
32174.0,0,1.6508276255707766,0.0,6.341990106544901,0.0,0.0617865296803653,Ormond Beach,FL,29.3009,-81.111
32212.0,3,1.4056316590563167,0.2760178843226789,9.106925418569254,0.03125,0.0556982496194825,Jacksonville,FL,30.2347,-81.6746
32218.0,3,2.5586948249619486,0.22588470319634707,7.915287290715374,0.0,0.01664764079147641,Jacksonville,FL,30.4953,-81.6937
32221.0,0,5.108732876712329,0.0,5.1255232115677325,0.002853881278538813,0.0266837899543379,Jacksonville,FL,30.2129,-81.8707
32225.0,3,1.9784056316590566,0.22369672754946726,7.5403824200913245,0.002853881278538813,0.020500380517503806,Jacksonville,FL,30.3371,-81.5127
32227.0,3,1.5221651445966515,0.20809550989345513,8.11320395738204,0.0,0.04965753424657534,Jacksonville,FL,30.3959,-81.4229
32310.0,3,5.610920852359209,0.26797945205479456,8.592323059360732,0.01617199391171994,0.010606925418569254,Tallahassee,FL,30.3935,-84.3513
32320.0,3,2.5833808980213093,0.3398021308980213,6.916381278538813,0.003186834094368341,1.4688451293759512,Apalachicola,FL,29.7268,-85.0248
32348.0,3,4.71984398782344,0.051369863013698634,6.921375570776256,0.006659056316590563,0.0,Perry,FL,30.0719,-83.5736
32352.0,0,2.9499619482496198,0.0884703196347032,3.5549847792998484,0.0,0.0,Quincy,FL,30.5979,-84.5574
32403.0,3,3.0046375570776256,0.2517123287671233,10.070205479452055,0.0,0.1508514079147641,Panama City,FL,30.0333,-85.5333
32403.0,3,3.0046375570776256,0.2517123287671233,10.070205479452055,0.0,0.1508514079147641,Panama City,FL,30.0644,-85.5637
32409.0,3,4.179604261796043,0.3289098173515982,7.591704718417048,0.0,0.07258371385083714,Panama City,FL,30.349,-85.788
32425.0,3,2.818445585996956,0.1650494672754947,8.717608447488585,0.0,0.0,Bonifay,FL,30.8458,-85.6014
32435.0,3,4.172374429223744,0.250808599695586,10.536957762557078,0.009512937595129375,0.0,Defuniak Springs,FL,30.7311,-86.1538
32446.0,3,1.9731259512937596,0.3087899543378996,8.841657153729072,0.003329528158295282,0.0015220700152207003,Marianna,FL,30.837,-85.1835
32504.0,3,2.484351217656012,0.3167332572298326,9.478405631659056,0.015506088280060884,0.0075152207001522075,Pensacola,FL,30.4781,-87.1869
32508.0,3,3.374334094368341,0.2285007610350076,8.905251141552512,0.015648782343987824,0.05779109589041096,Pensacola,FL,30.3564,-87.3233
32539.0,3,4.63527397260274,0.27387747336377477,10.512271689497718,0.011367960426179605,0.0,Crestview,FL,30.7771,-86.5194
32541.0,3,2.9687024353120246,0.3047945205479452,7.9469653729071545,0.005327245053272451,0.00856164383561644,Destin,FL,30.3934,-86.4674
32542.0,3,2.700627853881279,0.1872859589041096,9.938879375951295,0.007348744292237443,0.014935312024353121,Eglin Afb,FL,30.4833,-86.5254
32542.0,3,2.700627853881279,0.1872859589041096,9.938879375951295,0.007348744292237443,0.014935312024353121,Eglin AFB,FL,30.5069,-86.9597
32544.0,3,2.3666286149162863,0.18398021308980214,10.54656582952816,0.007705479452054794,0.020643074581430745,Hurlburt Field,FL,30.4278,-86.6893
32570.0,3,4.361777016742771,0.18295757229832574,10.941352739726028,0.00932267884322679,0.011510654490106546,Milton,FL,30.7044,-87.0231
32570.0,3,4.361777016742771,0.18295757229832574,10.941352739726028,0.00932267884322679,0.011510654490106546,Milton,FL,30.7285,-87.0219
32609.0,3,2.910150304414003,0.2914764079147641,8.195633561643836,0.0021879756468797563,0.0031392694063926943,Gainesville,FL,29.6917,-82.276
32628.0,3,4.553129756468798,0.38893645357686457,6.672374429223745,0.011415525114155252,0.005707762557077625,Cross City,FL,29.6334,-83.1054
32724.0,3,1.737062404870624,0.1733732876712329,6.851931126331811,0.0,0.007610350076103501,Deland,FL,29.067,-81.2837
32773.0,3,1.3214897260273974,0.32529490106544906,7.217323059360731,0.0018074581430745815,0.030536529680365295,Sanford,FL,28.7797,-81.2436
32780.0,0,1.7853405631659058,0.0,4.796803652968037,0.0,0.16795091324200914,Titusville,FL,28.5148,-80.7992
32803.0,3,0.9778824200913242,0.78419901065449,7.967941400304414,0.0,0.03201103500761035,Orlando,FL,28.5465,-81.3354
32815.0,3,3.0573154490106544,1.2737823439878235,8.11691400304414,0.0,0.0,Orlando,FL,28.615,-80.6945
32827.0,3,2.1190068493150687,0.27549467275494677,8.419425418569254,0.0,0.030821917808219176,Orlando,FL,28.4183,-81.3241
32901.0,3,1.2257420091324203,0.23687214611872148,7.54851598173516,0.0,0.02164193302891933,Melbourne,FL,28.0997,-80.6356
32925.0,0,1.9210901826484021,0.2538289573820396,5.227906202435312,0.0,0.11153919330289191,Patrick Afb,FL,28.2422,-80.608
32925.0,0,1.9210901826484021,0.2538289573820396,5.227906202435312,0.0,0.11153919330289191,Patrick AFB,FL,28.4676,-80.5666
32960.0,3,1.6628614916286149,0.35464231354642317,6.965610730593608,0.0,0.024400684931506853,Vero Beach,FL,27.6556,-80.4179
33023.0,3,0.2591324200913242,0.35939878234398787,9.811025494672755,0.002853881278538813,0.10892313546423135,Miramar-Pembroke Pines,FL,25.9995,-80.2412
33033.0,3,0.8081240487062405,0.21551560121765603,8.092941400304415,0.0,0.001189117199391172,Homestead,FL,25.4949,-80.3732
33040.0,0,0.2627711187214612,0.2273592085235921,5.497883371385084,0.0,0.020666856925418572,Key West,FL,24.5801,-81.6829
33040.0,0,0.2627711187214612,0.2273592085235921,5.497883371385084,0.0,0.020666856925418572,Key West,FL,24.5571,-81.7554
33050.0,0,0.2585140791476408,0.22036719939117203,5.76726598173516,0.0,0.02578006088280061,Marathon,FL,24.7263,-81.0477
33054.0,3,0.40315829528158303,0.3446061643835617,9.463375190258752,0.0,0.22617009132420096,Opa Locka,FL,25.9102,-80.2828
33060.0,3,1.0730593607305936,0.318160197869102,8.028919330289193,0.0,0.030203576864535772,Pompano Beach,FL,26.2464,-80.111
33122.0,3,0.22669330289193304,0.5134132420091325,8.908247716894977,0.0,0.012414383561643835,Miami,FL,25.788,-80.3169
33186.0,3,1.1189592846270928,0.3353786149162862,8.917237442922374,0.0,0.011700913242009135,Miami,FL,25.6423,-80.4347
33309.0,3,0.47203196347031967,0.34812595129375956,9.197203196347033,0.0,0.03191590563165906,Fort Lauderdale,FL,26.199,-80.1776
33315.0,3,0.1603881278538813,0.35654490106544906,7.97640791476408,0.0,0.0145072298325723,Fort Lauderdale,FL,26.0787,-80.1622
33406.0,3,0.29518645357686457,0.37205098934550995,8.592703576864537,0.0,0.04647070015220701,West Palm Beach,FL,26.6851,-80.0992
33431.0,0,0.856021689497717,0.2501902587519026,6.868245814307458,0.0,0.02696917808219178,Boca Raton,FL,26.3785,-80.1077
33542.0,3,2.689307458143075,0.07420091324200914,6.940639269406393,0.0,0.0019025875190258753,Zephyrhills,FL,28.2281,-82.1559
33566.0,0,1.674181887366819,0.032343987823439876,5.998953576864536,0.0,0.042427701674277014,Plant City,FL,28.0013,-82.1593
33606.0,0,2.073820395738204,0.033295281582952814,5.808599695585997,0.0009512937595129377,0.0,Tampa,FL,27.9152,-82.4518
33607.0,0,0.5862347792998478,0.2752092846270929,6.878281963470321,0.0,0.007705479452054796,Tampa,FL,27.9633,-82.54
33610.0,3,3.919330289193303,0.022831050228310504,7.402016742770168,0.0009512937595129377,0.0,Tampa,FL,28.0198,-82.3415
33621.0,3,1.3746670471841707,0.6129185692541858,8.486301369863014,0.0,0.0019977168949771693,Tampa,FL,27.8493,-82.5212
33701.0,3,0.9254185692541858,0.2700247336377473,7.0231640030441405,0.0,0.04356925418569254,Saint Petersburg,FL,27.7685,-82.6256
33762.0,3,1.1559170471841707,0.3222983257229833,7.128472222222222,0.0,0.018883181126331815,Clearwater,FL,27.9126,-82.6855
33811.0,0,1.7304033485540338,0.0,6.166286149162861,0.0,0.041619101978691016,Lakeland,FL,27.9889,-82.0186
33830.0,0,3.3367104261796046,0.0,6.350551750380517,0.0,0.023829908675799087,Bartow,FL,27.9471,-81.7811
33881.0,3,1.30955098934551,0.2649828767123288,7.002996575342466,0.0,0.01726598173515982,Winter Haven,FL,28.0614,-81.7568
33907.0,3,1.0069444444444444,0.3065544140030442,7.243816590563166,0.0,0.014697488584474888,Fort Myers,FL,26.5849,-81.8615
33913.0,3,1.3915049467275495,0.2967560882800609,7.840896118721461,0.0,0.03353310502283105,Fort Myers,FL,26.5381,-81.7567
33982.0,3,3.3925989345509895,0.2962804414003044,7.353595890410959,0.01712328767123288,0.03234398782343988,Punta Gorda,FL,26.9185,-81.9939
34104.0,0,1.0979832572298327,0.25404299847793,5.582952815829528,0.0,0.019311263318112636,Naples,FL,26.1554,-81.7746
34114.0,0,1.2373002283105023,2.71875,6.724410197869102,0.0,0.0003329528158295282,Naples,FL,25.995,-81.6725
34142.0,0,2.834617579908676,0.33361872146118726,5.80365296803653,0.0,0.001997716894977169,Immokalee,FL,26.4338,-81.4014
34243.0,3,1.274115296803653,0.2562309741248098,7.292855783866058,0.0,0.021879756468797567,Sarasota,FL,27.4014,-82.5586
34285.0,0,2.4087709284627095,0.2620814307458143,6.520833333333334,0.0,0.003329528158295282,Venice,FL,27.0716,-82.4403
34429.0,3,1.9396879756468797,0.2168949771689498,8.140220700152208,0.0,0.0,Crystal River,FL,28.866,-82.5741
34450.0,3,5.868531202435313,0.17884322678843229,7.423896499238966,0.02663622526636225,0.0,Inverness,FL,28.804,-82.318
34474.0,3,3.0790525114155254,0.19030631659056318,6.723934550989346,0.0006659056316590564,0.014269406392694065,Ocala,FL,29.1637,-82.221
34604.0,3,4.707477168949772,0.2850551750380518,7.344463470319635,0.0,0.004613774733637748,Brooksville,FL,28.4739,-82.4537
34741.0,3,1.120719178082192,0.014316971080669712,7.980926560121767,0.0,0.006801750380517504,Kissimmee,FL,28.2924,-81.4372
34788.0,0,1.5487062404870624,0.29823059360730597,6.244672754946728,0.0010464231354642315,0.016504946727549468,Leesburg,FL,28.8214,-81.8096
34946.0,3,1.9548611111111114,0.3050323439878234,8.046042617960428,0.0,0.03809931506849315,Fort Pierce,FL,27.4981,-80.3767
34972.0,3,2.026969178082192,0.24020167427701672,7.500237823439879,0.0,0.012604642313546424,Okeechobee,FL,27.2663,-80.8487
34996.0,3,1.2515220700152208,0.04813546423135465,11.682458143074582,0.0,0.12685502283105024,Stuart,FL,27.1816,-80.2252
35007.0,3,1.8093131659056318,0.2243150684931507,9.117960426179605,0.08989726027397262,0.0,Alabaster,AL,33.1783,-86.7817
35010.0,3,2.0481354642313545,0.19677511415525117,10.314355022831052,0.08656773211567732,0.0,Alexander City,AL,32.9147,-85.9628
35179.0,3,1.7527587519025876,0.3620624048706241,10.262557077625571,0.2671232876712329,0.00214041095890411,Vinemont,AL,34.2687,-86.858
35206.0,3,0.8234874429223745,0.2811548706240487,9.027064307458144,0.10797184170471841,0.0013793759512937597,Birmingham,AL,33.5655,-86.7449
35401.0,3,1.9302701674277019,0.24262747336377474,9.404252283105023,0.07258371385083714,0.0007610350076103501,Tuscaloosa,AL,33.2122,-87.6155
35503.0,2,9.242770167427702,0.0,2.962328767123288,0.2349695585996956,0.0,Jasper,AL,33.902,-87.314
35565.0,3,2.804033485540335,0.49039193302891937,11.982971841704718,0.290953196347032,0.0,Haleyville,AL,34.2803,-87.6004
35618.0,3,2.4836853120243534,0.4652302130898021,7.332619863013699,0.23958333333333337,0.0014269406392694065,Courtland,AL,34.6594,-87.3488
35661.0,3,2.0527492389649926,0.38284817351598177,9.081050228310502,0.23958333333333337,0.0010939878234398784,Muscle Shoals,AL,34.7439,-87.5996
35671.0,3,1.5250190258751903,0.1893550228310502,10.779490106544902,0.16795091324200914,0.006373668188736682,Tanner,AL,34.6525,-86.9453
35756.0,3,1.3734303652968038,0.2242199391171994,11.035055175038053,0.2664573820395738,0.0013793759512937597,Madison,AL,34.6439,-86.7861
35759.0,3,2.099267503805175,0.09798325722983256,10.21033105022831,0.3253424657534247,0.0,Meridianville,AL,34.8614,-86.5572
35768.0,3,3.4876807458143073,0.12081430745814307,9.912718797564688,0.1617199391171994,0.0009512937595129377,Scottsboro,AL,34.6887,-86.0059
35898.0,3,1.8745243531202438,0.16633371385083714,9.733352359208524,0.22973744292237444,0.001664764079147641,Huntsville,AL,34.6787,-86.6848
35904.0,3,2.835711567732116,0.17123287671232879,11.432030060882802,0.14573820395738205,0.0004756468797564689,Gadsden,AL,33.9726,-86.0891
35950.0,3,1.1872146118721463,0.21171042617960428,7.985492770167428,0.10369101978691021,0.0,Albertville,AL,34.2291,-86.2558
35968.0,3,3.7209855403348553,0.1322298325722983,10.439735540334857,0.18740487062404873,0.0009512937595129377,Fort Payne,AL,34.4737,-85.7214
36027.0,0,1.9550989345509897,0.09979071537290717,6.576579147640792,0.014602359208523591,0.0,Eufaula,AL,31.9516,-85.1312
36037.0,3,3.7538527397260273,0.15839041095890413,11.292047184170473,0.052987062404870625,0.0,Greenville,AL,31.8457,-86.6107
36079.0,3,2.8122621765601217,0.17698820395738205,9.537243150684931,0.0435216894977169,0.0017123287671232878,Troy,AL,31.8606,-86.0122
36108.0,3,2.519977168949772,0.26664764079147646,8.213422754946727,0.12243150684931509,0.0014269406392694065,Hope Hull,AL,32.3003,-86.4061
36112.0,3,3.111206240487063,0.20010464231354647,8.766647640791478,0.05303462709284627,0.0013793759512937597,Montgomery,AL,32.3829,-86.3658
36203.0,3,1.4404014459665144,0.21080669710806696,9.0642598934551,0.10935121765601218,0.0,Oxford,AL,33.5904,-85.8479
36303.0,3,2.9790715372907153,0.23168759512937598,8.656297564687975,0.0063261035007610355,0.07134703196347032,Dothan,AL,31.3213,-85.4496
36322.0,3,2.820157914764079,0.09703196347031964,7.590372907153729,0.014649923896499238,0.002520928462709285,Daleville,AL,31.2767,-85.711
36362.0,3,3.3356164383561646,0.07634132420091325,8.197964231354643,0.06307077625570777,0.0002378234398782344,Fort Rucker,AL,31.3558,-85.7511
36401.0,3,4.892789193302892,0.22407724505327245,9.430032343987824,0.031773211567732114,0.003947869101978691,Evergreen,AL,31.4158,-87.044
36421.0,3,4.767170852359209,0.2507134703196347,9.420186453576866,0.01098744292237443,0.0007134703196347033,Andalusia,AL,31.3087,-86.3938
36442.0,3,2.9550038051750382,0.1836472602739726,9.64816400304414,0.003852739726027397,0.0,Florala,AL,31.0425,-86.3117
36532.0,3,2.4912005327245055,0.0739630898021309,7.661482115677322,0.017123287671232876,0.37576103500761043,Fairhope,AL,30.46,-87.877
36535.0,0,5.481021689497717,0.3985920852359209,5.676227168949772,0.007610350076103502,0.0,Foley,AL,30.3891,-87.6353
36542.0,3,4.601312785388128,0.221175799086758,7.615439497716895,0.007610350076103502,0.0,Gulf Shores,AL,30.2896,-87.6718
36608.0,3,3.6869292237442925,0.3373287671232877,8.038004185692543,0.04989535768645358,0.045091324200913246,Mobile,AL,30.6883,-88.2456
36615.0,3,3.669901065449011,0.30127473363774737,9.291000761035008,0.02882420091324201,0.02616057838660579,Mobile,AL,30.6268,-88.0681
36732.0,3,2.4600456621004567,0.17979452054794523,6.821584855403349,0.1196251902587519,0.0,Demopolis,AL,32.4638,-87.954
36801.0,3,1.8545471841704722,0.1738013698630137,11.637081430745814,0.04813546423135465,0.0004756468797564688,Opelika,AL,32.6151,-85.434
37042.0,3,2.34484398782344,0.05760083713850837,9.73282914764079,0.9295091324200914,0.0036624809741248095,Clarksville,TN,36.6169,-87.4117
37167.0,3,1.7976122526636227,0.18574010654490106,10.701388888888891,0.7193683409436834,0.004138127853881278,Smyrna,TN,36.009,-86.5201
37217.0,3,1.8975456621004567,0.22398211567732118,10.140791476407916,0.7347317351598174,0.003805175038051751,Nashville,TN,36.1189,-86.6892
37303.0,0,1.8031297564687976,0.1806031202435312,5.732781582952816,0.42342085235920857,0.011843607305936072,Athens,TN,35.3992,-84.5618
37312.0,0,3.985920852359209,0.2782534246575343,5.070538432267885,0.10112252663622526,0.00019025875190258754,Cleveland,TN,35.2115,-84.7998
37388.0,0,3.7725932267884326,0.21665715372907152,0.0,0.0,0.0009512937595129377,Tullahoma,TN,35.38,-86.246
37398.0,0,2.74781202435312,0.16837899543378995,0.0,0.0,0.0009512937595129377,Winchester,TN,35.1775,-86.0662
37421.0,3,3.774162861491629,0.19092465753424662,11.099410197869101,0.23463660578386608,0.0009512937595129377,Chattanooga,TN,35.0353,-85.2038
37617.0,3,3.4927701674277016,0.1363679604261796,10.935930365296803,1.3594939117199392,0.003234398782343988,Blountville,TN,36.4797,-82.3989
37643.0,3,1.9351693302891932,0.04471080669710807,10.554604261796044,0.875665905631659,0.0,Elizabethton,TN,36.3712,-82.1734
37701.0,3,2.5288717656012176,0.13998287671232876,13.152159436834095,0.8454147640791477,0.018835616438356163,Alcoa,TN,35.818,-83.9857
37830.0,3,3.1550133181126334,0.157058599695586,12.558457001522072,0.5279204718417048,0.0,Oak Ridge,TN,36.023,-84.2336
38024.0,3,2.320728691019787,0.11548706240487064,9.233828006088281,0.3600646879756469,0.0026636225266362256,Dyersburg,TN,35.998,-89.4066
38053.0,0,2.3492199391171993,0.08062214611872147,5.154014459665145,0.2595129375951294,0.033057458143074585,Millington,TN,35.3567,-89.8703
38118.0,3,0.9239440639269407,0.2243150684931507,11.157296423135465,0.4124809741248098,0.0059455859969558605,Memphis,TN,35.0564,-89.9863
38261.0,0,4.928177321156773,0.1498287671232877,0.0,0.0,0.0,Union City,TN,36.3797,-88.9857
38301.0,3,2.3257705479452055,0.18631088280060884,7.823249619482497,0.3775209284627093,0.0007610350076103501,Jackson,TN,35.5931,-88.9167
38474.0,0,4.692018645357686,0.1923991628614916,0.0,0.0,0.0,Mount Pleasant,TN,35.5544,-87.1791
38572.0,3,3.5346746575342465,0.1954908675799087,9.66609589041096,1.3544520547945207,0.0,Crossville,TN,35.9513,-85.085
38583.0,0,6.645738203957382,0.2551845509893455,0.0,0.0,0.0,Sparta,TN,36.0528,-85.5359
38645.0,0,4.7526636225266365,0.1750380517503805,0.0,0.0,0.002853881278538813,Lyon,MS,34.2997,-90.5123
38654.0,0,2.7955194063926943,0.1816971080669711,4.442494292237443,0.18378995433789957,0.016219558599695587,Olive Branch,MS,34.9787,-89.7869
38655.0,3,1.9644216133942163,0.016171993911719938,7.623668188736683,0.07039573820395738,0.0009512937595129377,Oxford,MS,34.3843,-89.5368
38676.0,3,3.241057838660579,0.1360350076103501,7.886225266362254,0.22735920852359212,0.004756468797564688,Tunica,MS,34.6811,-90.3467
38703.0,3,2.1442161339421615,0.2016742770167428,9.742960426179605,0.17708333333333334,0.003091704718417047,Greenville,MS,33.4829,-90.9856
38732.0,3,1.1815068493150687,0.0,7.679794520547945,0.10559360730593607,0.0038051750380517506,Cleveland,MS,33.7611,-90.7579
38801.0,3,1.6094463470319638,0.3013698630136986,7.891124429223745,0.13517884322678844,0.0003329528158295282,Tupelo,MS,34.2622,-88.7713
38827.0,3,3.7098554033485542,0.6113489345509894,11.412671232876713,0.29295091324200917,0.0,Belmont,MS,34.4917,-88.2011
38834.0,3,5.9843512176560125,0.08942161339421614,10.610492770167427,0.2872907153729072,0.0,Corinth,MS,34.915,-88.6035
38930.0,3,1.3818493150684932,0.20609779299847794,8.74224695585997,0.19044901065449013,0.0005707762557077626,Greenwood,MS,33.4943,-90.0847
39041.0,2,10.477549467275496,0.0,5.417617960426179,0.08561643835616439,0.0009512937595129377,Bolton,MS,32.3033,-90.4085
39120.0,3,1.4187119482496195,0.3507895738203958,9.178034627092845,0.23444634703196351,0.1341324200913242,Natchez,MS,31.6159,-91.2972
39180.0,0,2.9282724505327247,0.1958238203957382,4.451769406392694,0.11249048706240487,0.0,Vicksburg,MS,32.2393,-90.9284
39213.0,3,1.8678177321156775,0.2549942922374429,9.899210426179605,0.07738774733637747,0.00019025875190258754,Jackson,MS,32.3348,-90.2225
39232.0,3,1.6592941400304413,0.23573059360730594,9.621052130898022,0.08261986301369863,0.0005707762557077625,Flowood,MS,32.3197,-90.0775
39307.0,3,2.1114916286149166,0.2568968797564688,8.643550228310502,0.11177701674277017,0.003852739726027398,Meridian,MS,32.3347,-88.7511
39309.0,3,2.5536054033485542,0.2164193302891933,8.461853120243532,0.10644977168949772,0.0017598934550989347,Meridian,MS,32.5521,-88.5556
39401.0,3,2.9718892694063928,0.26617199391172,9.901160578386607,0.051274733637747344,0.0008561643835616439,Hattiesburg,MS,31.2694,-89.2561
39459.0,3,3.593797564687976,0.5965087519025876,7.95543188736682,0.1413146879756469,0.0,Moselle,MS,31.4671,-89.3371
39501.0,3,3.76945395738204,0.38284817351598177,7.7663146879756475,0.009084855403348555,0.017598934550989348,Gulfport,MS,30.4119,-89.0808
39534.0,3,3.13089802130898,0.22398211567732118,6.742389649923897,0.01222412480974125,0.012557077625570777,Biloxi,MS,30.4104,-88.9244
39556.0,3,2.508894596651446,0.2678367579908676,7.311786529680366,0.0027587519025875193,0.048420852359208524,Kiln,MS,30.3678,-89.4547
39563.0,3,4.795614535768646,0.2999429223744292,8.723696727549468,0.012842465753424659,0.06440258751902588,Moss Point,MS,30.4628,-88.5292
39601.0,0,3.370433789954338,0.0960806697108067,1.692351598173516,0.002853881278538813,0.0,Brookhaven,MS,31.6058,-90.4093
39648.0,3,3.618959284627093,1.1346556316590564,8.062928082191782,0.07187024353120244,0.0,Mccomb,MS,31.1784,-90.4719
39701.0,3,1.6901636225266363,0.06078767123287672,7.6851217656012185,0.17365867579908678,0.0034246575342465756,Columbus,MS,33.4503,-88.5914
39705.0,3,1.9012557077625574,0.18288622526636225,8.001379375951295,0.05469939117199392,0.00214041095890411,Columbus,MS,33.6438,-88.4438
39730.0,3,7.452149923896499,0.1560597412480974,8.102644596651446,0.07296423135464232,0.0013793759512937597,Aberdeen,MS,33.8738,-88.4897
39759.0,3,3.5036149162861494,0.030441400304414005,7.653158295281583,0.12557077625570778,0.0009512937595129377,Starkville,MS,33.4331,-88.8486
39817.0,0,1.7931887366818875,0.12557077625570778,3.727644596651446,0.0,0.0009512937595129377,Bainbridge,GA,30.9716,-84.6369
39823.0,3,2.503805175038052,0.0,8.902444824961949,0.0,0.0,Blakely,GA,31.3975,-84.8948
40121.0,3,2.658675799086758,0.058932648401826486,10.88517884322679,1.6873097412480975,0.0039003044140030444,Fort Knox,KY,37.9071,-85.9721
40205.0,3,2.0386225266362255,0.0999334094368341,11.57277397260274,1.1484018264840183,0.0023306697108066974,Louisville,KY,38.228,-85.6637
40213.0,3,1.3761415525114156,0.12937595129375953,13.790762937595131,2.355498477929985,0.007895738203957382,Louisville Airport,KY,38.1744,-85.736
40353.0,3,1.360350076103501,0.16076864535768648,9.997859589041097,1.7665525114155252,0.0,Mount Sterling,KY,38.0575,-83.9829
40422.0,3,1.4248002283105023,0.0,11.645452815829529,1.3082667427701675,0.0,Danville,KY,37.578,-84.77
40475.0,0,0.0,0.0,0.0,0.0,0.0,Richmond,KY,37.6308,-84.3323
40510.0,3,1.9048706240487066,0.174705098934551,12.073202054794521,1.4988584474885847,0.003091704718417047,Lexington,KY,38.0339,-84.6115
40601.0,3,2.383751902587519,0.1600076103500761,8.769596651445967,1.216609589041096,0.0,Frankfort,KY,38.1847,-84.9033
40744.0,3,2.4470605022831053,0.16947298325722984,12.426940639269406,1.212566590563166,0.00038051750380517507,London,KY,37.087,-84.077
40806.0,0,2.195157914764079,0.08647260273972604,5.479023972602739,0.7939497716894978,0.0,Baxter,KY,36.8593,-83.3585
40965.0,3,5.108209665144598,0.11320395738203957,12.8070300608828,1.0999334094368343,0.0,Middlesboro,KY,36.6106,-83.7374
41018.0,3,2.9511510654490105,0.13517884322678844,11.980260654490108,2.928367579908676,0.00932267884322679,Erlanger,KY,39.0446,-84.6723
41214.0,3,5.0820490867579915,0.20947488584474888,11.843987823439878,1.8550228310502284,0.0009512937595129377,Debord,KY,37.751,-82.6367
41339.0,3,4.505184550989346,0.1242865296803653,12.046851217656013,1.786244292237443,0.0,Jackson,KY,37.5913,-83.3137
42064.0,3,1.342275494672755,0.015220700152207002,9.922945205479452,1.0913717656012178,0.0,Marion,KY,37.3363,-88.1097
42066.0,0,0.7734018264840183,0.5669710806697108,3.7186073059360734,0.5270167427701674,0.0019025875190258753,Mayfield,KY,36.7696,-88.5847
42071.0,0,0.0,0.6373668188736682,0.0,0.0,0.0009512937595129377,Murray,KY,36.6646,-88.3728
42086.0,3,3.0064212328767126,0.17832001522070018,9.1359398782344,0.6816495433789954,0.005469939117199391,West Paducah,KY,37.0564,-88.7739
42103.0,3,2.4255612633181127,0.16971080669710809,9.428510273972604,0.7192256468797564,0.0010464231354642313,Bowling Green,KY,36.9645,-86.4197
42141.0,3,2.397260273972603,0.14150494672754946,9.861967275494672,1.0107020547945205,0.0,Glasgow,KY,37.0318,-85.9537
42223.0,3,1.7652207001522071,0.07572298325722983,10.269406392694064,0.8988299086757991,0.0051845509893455105,Fort Campbell,KY,36.6686,-87.4962
42301.0,3,2.086805555555556,0.13256278538812788,11.882372526636225,1.7428652968036533,0.0071347031963470324,Owensboro,KY,37.7388,-87.1668
42420.0,3,1.6407439117199392,0.940591704718417,9.509037290715373,1.2376807458143075,0.0,Henderson,KY,37.8065,-87.6823
42431.0,3,2.0547945205479454,0.0580289193302892,9.108875570776256,0.9762652207001522,0.0009512937595129377,Madisonville,KY,37.3559,-87.3982
42501.0,3,2.7555650684931505,0.12423896499238965,12.283295281582953,1.0359113394216135,0.0019025875190258753,Somerset,KY,37.0513,-84.6168
42633.0,3,3.1617199391171993,0.05474695585996956,12.649781202435314,1.925085616438356,0.0005707762557077626,Monticello,KY,36.8553,-84.8561
43015.0,3,2.4128139269406392,0.09351217656012177,10.071679984779301,3.3869387366818877,0.0029014459665144595,Delaware,OH,40.2797,-83.1148
43040.0,0,0.0,0.2029109589041096,0.0,0.0,0.011225266362252663,Marysville,OH,40.2247,-83.3516
43050.0,3,2.9157629375951295,0.0863299086757991,10.3970700152207,4.322631278538814,0.004708904109589041,Mount Vernon,OH,40.3268,-82.5201
43056.0,3,5.3511225266362255,0.13560692541856925,11.449248477929986,2.700580289193303,0.006944444444444444,Heath,OH,40.0264,-82.4634
43112.0,3,2.6209094368340944,0.1351312785388128,9.005279680365296,2.6634798325722984,0.0006659056316590564,Carroll,OH,39.7556,-82.6571
43217.0,3,1.3439878234398783,0.0,10.411006468797565,2.3896499238964997,0.010464231354642313,Columbus,OH,39.8138,-82.9278
43219.0,3,1.4893455098934552,0.16956811263318114,12.038955479452055,4.8119767884322675,0.007705479452054796,Columbus,OH,39.9907,-82.8769
43228.0,3,2.375142694063927,0.045234018264840185,10.058314307458144,2.7144216133942165,0.011463089802130899,Columbus,OH,39.9012,-83.1369
43235.0,3,2.4667047184170476,0.12352549467275495,10.574724124809741,3.1424086757990866,0.009988584474885846,Columbus,OH,40.0781,-83.0781
43302.0,3,5.292950913242009,0.10507039573820395,7.965943683409438,3.2359684170471845,0.0019025875190258753,Marion,OH,40.6163,-83.0635
43311.0,0,0.1353215372907154,0.2646974885844749,0.0,0.0,0.019739345509893456,Bellefontaine,OH,40.3723,-83.8192
43447.0,3,3.833190639269407,0.1045947488584475,7.498097412480975,2.9190449010654493,0.030584094368340947,Millbury,OH,41.5631,-83.4764
43452.0,3,2.716609589041096,0.08656773211567732,8.612014840182649,2.966704718417047,0.036196727549467275,Port Clinton,OH,41.5163,-82.8695
43512.0,3,2.9135749619482496,0.11800799086757992,8.800323439878234,3.2674086757990874,0.001284246575342466,Defiance,OH,41.3357,-84.4285
43558.0,3,2.793283866057839,0.13080289193302894,9.456858828006089,3.573630136986302,0.04547184170471842,Swanton,OH,41.587,-83.8054
43567.0,3,3.8926940639269407,0.0007134703196347033,7.367770167427702,2.2538527397260277,0.0967941400304414,Wauseon,OH,41.6101,-84.1272
43701.0,3,3.0390030441400304,0.1050228310502283,9.530203576864537,2.9287005327245055,0.0,Zanesville,OH,39.9444,-81.8921
44035.0,1,5.0062785388127855,0.10040905631659056,10.447869101978691,5.261843607305936,0.03324771689497717,Elyria,OH,41.3461,-82.1794
44047.0,1,2.5457572298325726,0.12766362252663624,8.76869292237443,7.052463850837139,0.00975076103500761,Jefferson,OH,41.778,-80.6955
44114.0,1,2.8436548706240488,0.10007610350076106,10.0533200152207,5.799467275494673,0.1383656773211568,Cleveland,OH,41.5173,-81.6832
44135.0,1,1.0561738964992389,0.14397831050228313,11.161244292237443,8.209855403348554,0.05626902587519026,Cleveland,OH,41.4057,-81.8519
44143.0,1,2.0385749619482496,0.025684931506849317,10.365201674277017,7.173706240487062,0.0580289193302892,Cleveland,OH,41.5651,-81.4864
44266.0,0,1.2065734398782344,0.11115867579908675,4.286672374429224,3.1952054794520546,0.0009512937595129377,Ravenna,OH,41.209,-81.2479
44306.0,3,2.5995053272450535,0.07672184170471842,10.266457382039574,4.595034246575342,0.007562785388127854,Akron,OH,41.0375,-81.4642
44473.0,1,4.01617199391172,0.14250380517503805,15.181792237442924,11.719606164383563,0.0021879756468797563,Vienna,OH,41.2544,-80.6739
44663.0,3,3.788194444444445,0.108162100456621,9.678938356164384,3.3467941400304415,0.0023782343987823443,New Philadelphia,OH,40.4719,-81.4236
44677.0,3,3.208666286149163,0.08904109589041097,10.63812785388128,4.586995814307459,0.013318112633181127,Smithville,OH,40.8731,-81.8867
44720.0,1,4.558219178082192,0.12171803652968037,11.315639269406393,8.854261796042618,0.004708904109589041,Green,OH,40.9181,-81.4434
44903.0,1,2.9839231354642313,0.1121099695585997,8.081668569254186,4.402635083713851,0.009417808219178082,Mansfield,OH,40.8203,-82.5178
45014.0,3,2.542047184170472,0.11168188736681887,11.322726407914764,1.8179223744292239,0.0002378234398782344,Fairfield,OH,39.3612,-84.5206
45042.0,3,5.568160197869102,0.06207191780821918,9.286291856925418,2.249571917808219,0.002853881278538813,Middletown,OH,39.531,-84.3953
45066.0,3,3.419377853881279,0.08975456621004567,11.245291095890412,2.4622336377473366,0.0006659056316590564,Springboro,OH,39.589,-84.2249
45103.0,3,3.825342465753425,0.11477359208523594,9.894691780821919,2.5003805175038054,0.002378234398782344,Batavia,OH,39.0784,-84.2102
45177.0,3,3.0813356164383565,0.12809170471841705,11.202720700152208,2.8140696347031966,0.015743911719939118,Wilmington,OH,39.4279,-83.7921
45226.0,3,5.88265791476408,0.12851978691019786,12.017789193302894,1.625285388127854,0.0015696347031963472,Cincinnati,OH,39.1033,-84.4186
45377.0,3,2.432267884322679,0.09584284627092847,11.470319634703197,3.4222792998477933,0.04490106544901066,Vandalia,OH,39.9061,-84.2186
45380.0,3,2.641267123287671,0.05279680365296804,8.93312404870624,3.048658675799087,0.03638698630136986,Versailles,OH,40.2044,-84.5319
45433.0,3,2.3931221461187215,0.07539003044140032,11.780346270928463,3.532819634703197,0.014697488584474888,Dayton,OH,39.8261,-84.0483
45502.0,3,2.782391552511416,0.7836757990867581,11.676988203957384,4.989107686453577,0.02330669710806697,Springfield,OH,39.8403,-83.8402
45710.0,3,1.7862918569254185,0.033295281582952814,10.424514840182649,3.929081050228311,0.0038051750380517506,Albany,OH,39.2119,-82.2293
45804.0,3,2.447726407914764,0.1367484779299848,11.248953576864537,3.5052796803652972,0.03881278538812786,Lima,OH,40.7081,-84.0214
45840.0,3,3.121765601217656,0.09760273972602741,9.610064687975648,3.3515506088280067,0.05788622526636226,Findlay,OH,41.0136,-83.6686
46017.0,3,2.0200247336377477,0.06582952815829529,8.085949391171994,2.059455859969559,0.00975076103500761,Anderson,IN,40.1061,-85.6098
46077.0,3,2.8900304414003046,0.09013508371385084,10.690544140030442,3.1013127853881284,0.004756468797564688,Zionsville,IN,40.0307,-86.2514
46124.0,3,1.5873287671232879,0.0,8.599790715372908,2.1144882039573822,0.06953957382039574,Edinburgh,IN,39.342,-86.031
46140.0,0,0.0,0.0,0.0,0.0,0.025732496194824962,Greenfield,IN,39.8435,-85.8971
46176.0,3,2.9724600456621006,0.15039954337899544,10.455717275494674,2.099695585996956,0.014221841704718418,Shelbyville,IN,39.5855,-85.7998
46241.0,3,1.6724695585996956,0.15130327245053274,12.349933409436836,3.5925133181126334,0.024495814307458147,Indianapolis,IN,39.7252,-86.2816
46254.0,3,1.81949200913242,0.11344178082191782,9.453053652968038,2.4051084474885847,0.0002378234398782344,Indianapolis,IN,39.825,-86.2958
46350.0,1,2.940211187214612,0.05707762557077626,7.938546423135464,5.708951674277017,0.0019025875190258753,La Porte,IN,41.5725,-86.7345
46360.0,1,2.993959284627093,0.0,9.258228691019788,5.7070490867579915,0.0,Michigan City,IN,41.7033,-86.8212
46383.0,3,5.250713470319635,0.13018455098934553,8.410245433789955,3.995576484018265,0.023116438356164386,Valparaiso,IN,41.4535,-86.9981
46406.0,3,2.2541381278538815,0.013318112633181126,10.1984398782344,4.019073439878235,0.1251902587519026,Gary,IN,41.6121,-87.4091
46514.0,1,1.4219939117199392,0.0,9.512747336377474,5.538670091324201,0.06735159817351599,Elkhart,IN,41.7222,-86.0001
46526.0,3,5.213422754946728,0.09389269406392695,9.394739345509894,4.1847888127853885,0.02696917808219178,Goshen,IN,41.5263,-85.7862
46534.0,0,0.0,0.0,0.0,0.0,0.016171993911719938,Knox,IN,41.3302,-86.6648
46582.0,3,2.8316210045662102,0.01831240487062405,10.675656392694064,4.673278158295282,0.004756468797564688,Warsaw,IN,41.2747,-85.8401
46628.0,1,3.0788622526636225,0.1870719178082192,8.823487442922374,5.725409056316591,0.0063261035007610355,South Bend,IN,41.7072,-86.3164
46703.0,0,3.3409436834094373,0.03614916286149163,3.4103881278538815,2.223173515981735,0.0,Angola,IN,41.6404,-85.0851
46706.0,3,3.0597888127853885,0.032343987823439876,9.522735920852359,4.034008751902587,0.0019025875190258753,Auburn,IN,41.3072,-85.0644
46809.0,3,2.673087899543379,0.10797184170471844,12.528063165905632,5.625,0.0648306697108067,Fort Wayne,IN,40.9725,-85.2064
46901.0,1,2.090705859969559,0.14183789954337903,9.739583333333334,5.29556697108067,0.06597222222222222,Kokomo,IN,40.5282,-86.059
46914.0,3,1.8167332572298327,0.058171613394216136,10.125618340943685,3.6557267884322684,0.04637557077625571,Deer Creek,IN,40.6481,-86.1521
46947.0,3,2.3795186453576864,0.020024733637747337,9.382467656012178,3.063356164383562,0.0587423896499239,Logansport,IN,40.711,-86.375
46953.0,2,8.562737823439878,0.0342941400304414,3.5897545662100456,2.624476788432268,0.04566210045662101,Marion,IN,40.4899,-85.6797
46975.0,3,3.2703101217656014,0.08181126331811263,8.246765601217657,3.7483352359208526,0.0,Rochester,IN,41.0655,-86.1817
47203.0,3,1.1478310502283104,0.0,10.712994672754947,2.434313165905632,0.04823059360730594,Columbus,IN,39.2619,-85.8963
47303.0,3,3.688498858447489,0.11025494672754947,9.79851598173516,2.712947108066971,0.017931887366818874,Muncie,IN,40.2345,-85.3936
47403.0,3,2.7897165144596654,0.1495433789954338,10.70628805175038,1.9640410958904113,0.003091704718417047,Bloomington,IN,39.1432,-86.6168
47501.0,3,1.6884037290715375,0.07134703196347032,9.547041476407916,1.4048230593607307,0.002853881278538813,Washington,IN,38.7004,-87.1297
47542.0,3,1.528015601217656,0.37756849315068497,8.849172374429225,1.4532439117199392,0.0020928462709284626,Huntingburg,IN,38.2506,-86.9472
47711.0,3,2.465277777777778,0.1808885083713851,9.98592085235921,1.0981259512937596,0.0018550228310502284,Evansville,IN,38.0431,-87.5203
47803.0,3,2.3457952815829533,0.12980403348554034,9.71056887366819,2.1281392694063928,0.000808599695585997,Terre Haute,IN,39.4429,-87.3221
47906.0,3,3.0908485540334856,0.0989345509893455,8.27359208523592,2.6025494672754945,0.0033770928462709287,West Lafayette,IN,40.4124,-86.9474
47978.0,3,3.6025494672754945,0.0732496194824962,8.291476407914764,3.0374809741248097,0.022831050228310504,Rensselaer,IN,40.9479,-87.1826
48045.0,1,2.0749619482496198,0.04180936073059361,9.721603881278538,5.606402207001523,0.009275114155251143,Harrison Township,MI,42.6046,-82.8353
48074.0,1,5.1503044140030445,0.0,9.280964611872147,5.254851598173516,0.0,Kimball,MI,42.9103,-82.5332
48084.0,1,1.3857496194824963,0.0,8.42613203957382,4.8266742770167435,0.0,Troy,MI,42.5429,-83.1779
48108.0,1,6.6689497716894985,0.0959855403348554,7.261415525114156,4.9362157534246585,0.0029490106544901072,Ann Arbor,MI,42.224,-83.7397
48111.0,3,4.007229832572299,0.11249048706240487,9.012081430745816,4.037766362252664,0.02164193302891933,Belleville,MI,42.2367,-83.5264
48138.0,1,2.243721461187215,0.03362823439878235,7.304223744292238,4.329861111111112,0.0,Grosse Ile,MI,42.0986,-83.1611
48162.0,3,2.670662100456621,0.046518264840182656,8.369387366818874,3.721603881278539,0.009465372907153729,Monroe,MI,41.94,-83.4347
48234.0,3,1.7795852359208524,0.09403538812785389,8.213850837138509,3.7378710045662102,0.0,Detroit,MI,42.4073,-83.0089
48242.0,1,6.2128519786910195,0.09365487062404872,11.093084094368342,6.923087899543379,0.03862252663622527,Detroit,MI,42.2314,-83.3308
48327.0,1,3.514031582952816,0.09375000000000001,10.578529299847794,8.677463850837139,0.015125570776255709,Waterford,MI,42.6632,-83.4101
48413.0,1,2.8173515981735164,0.0,6.229166666666667,7.84736491628615,0.004804033485540335,Bad Axe,MI,43.7774,-82.9827
48446.0,1,2.0897070015220702,0.43398021308980217,9.475076103500761,6.080622146118722,0.0038051750380517506,Lapeer,MI,43.0665,-83.2716
48468.0,0,0.0,0.44867770167427706,0.0,0.0,0.14269406392694065,Port Hope,MI,44.0219,-82.7931
48507.0,1,2.252996575342466,0.11334665144596652,8.408675799086758,5.330003805175039,0.005707762557077626,Flint charter township,MI,42.9667,-83.7494
48601.0,1,2.11800799086758,0.0,7.134084855403349,5.1596270928462715,0.010321537290715374,Saginaw,MI,43.4319,-83.8648
48623.0,1,4.328624429223744,0.09427321156773212,7.668331430745814,4.626855022831051,0.025399543378995436,Freeland,MI,43.5281,-84.0813
48629.0,1,3.7763984018264845,0.10839992389649925,6.919615677321157,7.849505327245054,0.0,Houghton Lake,MI,44.3591,-84.6739
48642.0,1,2.6109684170471845,0.03039383561643836,7.487538051750381,5.033770928462709,0.0,Midland,MI,43.6624,-84.2621
48723.0,1,3.021023592085236,0.0,8.10621194824962,5.876712328767123,0.0009512937595129377,Caro,MI,43.4588,-83.4455
48750.0,1,2.2591799847793,0.03410388127853881,6.060264459665144,6.797659817351599,0.01902587519025875,Oscoda,MI,44.4515,-83.3942
48801.0,1,3.7973268645357687,0.0,6.946822678843227,6.094463470319635,0.0019025875190258753,Alma,MI,43.3221,-84.6879
48813.0,1,3.421993911719939,0.12495243531202435,7.769311263318113,6.738061263318112,0.0,Charlotte,MI,42.5764,-84.8124
48846.0,1,2.6964897260273974,0.017456240487062406,8.752330669710807,6.826103500761036,0.04318873668188737,Ionia,MI,42.938,-85.0605
48854.0,1,2.546898782343988,0.0,7.932315449010654,6.189259893455099,0.0,Mason,MI,42.5658,-84.4232
48855.0,1,2.5611206240487063,0.024686073059360734,8.478881278538813,6.024353120243532,0.0022355403348554037,Howell,MI,42.6294,-83.9842
48858.0,1,4.056649543378996,0.03339041095890411,7.440972222222222,5.631088280060883,0.0009512937595129377,Mount Pleasant,MI,43.6229,-84.743
48867.0,1,2.4769311263318112,0.0,6.048611111111112,6.555032343987824,0.0037576103500761037,Owosso,MI,42.9931,-84.1389
48906.0,1,3.0884703196347036,0.12252663622526636,8.084379756468799,5.639412100456621,0.03410388127853881,Lansing,MI,42.7762,-84.5997
49002.0,1,4.608732876712329,0.10616438356164386,9.435264459665145,6.847269786910198,0.0,Portage,MI,42.2283,-85.546
49022.0,1,4.366676179604262,0.10254946727549469,6.960806697108067,5.58556887366819,0.031582952815829526,Benton Harbor,MI,42.129,-86.4151
49036.0,1,2.6527777777777777,0.0,8.544710806697108,6.274400684931508,0.30693493150684936,Coldwater,MI,41.9308,-85.0543
49037.0,1,2.4046328006088284,0.1074486301369863,9.064830669710807,6.387842465753425,0.01403158295281583,Battle Creek,MI,42.312,-85.2414
49068.0,1,2.83490296803653,0.03591133942161339,8.5203101217656,6.293188736681888,0.0,Marshall,MI,42.2524,-84.9525
49090.0,1,1.9121004566210047,0.0,7.743388508371385,7.335901826484019,0.0009512937595129377,South Haven,MI,42.3508,-86.2561
49091.0,1,2.8995909436834095,0.02715943683409437,8.935074200913242,6.029490106544901,0.0018550228310502282,Sturgis city,MI,41.8153,-85.4376
49093.0,1,3.468274353120244,0.0,9.83033675799087,6.715135083713851,0.0009988584474885844,Three Rivers,MI,41.9597,-85.5934
49202.0,1,3.8502663622526643,0.13936453576864538,6.736396499238966,4.889840182648403,0.012271689497716896,Jackson,MI,42.2617,-84.4615
49221.0,3,2.31359398782344,0.10221651445966516,8.356925418569256,3.5780536529680367,0.0,Adrian,MI,41.8678,-84.0794
49242.0,1,3.986539193302892,0.02359208523592085,9.072821537290716,6.5077054794520555,0.0009512937595129377,Hillsdale,MI,41.9197,-84.5853
49267.0,3,2.775209284627093,0.0,8.528871765601217,3.8312404870624053,0.0,Ottawa Lake,MI,41.7358,-83.6553
49307.0,1,2.6098268645357687,0.03719558599695586,5.621813165905632,10.09375,0.0018550228310502282,Big Rapids,MI,43.7224,-85.4977
49412.0,1,3.266314687975647,0.0,8.733923135464233,8.009798325722983,0.007372526636225266,Fremont,MI,43.4393,-85.9949
49423.0,1,2.6378424657534247,0.09422564687975647,8.184788812785389,7.537290715372907,0.013984018264840185,Holland,MI,42.7461,-86.0967
49431.0,1,3.7026255707762563,0.018169710806697107,8.627616057838662,9.35216894977169,0.0038051750380517506,Ludington,MI,43.9625,-86.4079
49441.0,1,2.9105308219178085,0.07743531202435312,9.806411719939117,9.874001141552512,0.003091704718417047,Norton Shores,MI,43.1711,-86.2367
49512.0,1,3.2433885083713854,0.12647450532724508,10.843464611872147,9.551702815829529,0.042237442922374434,Grand Rapids,MI,42.8808,-85.5228
49601.0,1,3.577625570776256,0.0,8.875142694063927,13.214897260273974,0.006516362252663623,Cadillac,MI,44.2785,-85.4207
49615.0,1,2.4059170471841704,0.0,5.00656392694064,13.233780441400306,0.0,Bellaire,MI,44.9867,-85.2022
49635.0,1,2.0454718417047184,0.0,8.699771689497718,9.594701293759513,0.0013793759512937597,Frankfort,MI,44.6252,-86.2008
49660.0,1,3.967418188736682,0.05398592085235922,11.179984779299849,12.376855022831052,0.038146879756468806,Manistee,MI,44.2714,-86.2377
49686.0,1,1.2714041095890412,0.1013603500761035,8.770072298325724,14.146594368340944,9.512937595129377e-05,Traverse City,MI,44.739,-85.5679
49707.0,1,2.5575532724505328,0.07805365296803654,8.321442161339423,7.495148401826485,0.0,Alpena,MI,45.0717,-83.5644
49720.0,1,2.418759512937595,0.0,7.799752663622527,10.241961567732115,0.04100076103500761,Charlevoix,MI,45.3047,-85.2747
49721.0,1,2.53125,0.0,6.555270167427702,10.356687595129376,0.0029014459665144595,Cheboygan,MI,45.6536,-84.5192
49726.0,1,2.3443683409436837,0.023021308980213092,8.170709665144596,8.772165144596652,0.0,Drummond Island,MI,46.0072,-83.7427
49735.0,1,5.441542998477931,0.06007420091324202,8.608209665144598,12.589897260273974,0.010987442922374429,Bagley,MI,45.0166,-84.6894
